{
  "version": 0.6,
  "generator": "Overpass API 0.7.62.7 375dc00a",
  "osm3s": {
    "timestamp_osm_base": "2025-07-16T04:32:15Z",
    "copyright": "The data included in this document is from www.openstreetmap.org. The data is made available under ODbL."
  },
  "elements": [
    {
      "type": "node",
      "id": 29695282,
      "lat": 52.5336632,
      "lon": 13.3536389,
      "tags": {
        "addr:city": "Berlin",
        "addr:country": "DE",
        "addr:housenumber": "61A",
        "addr:postcode": "10559",
        "addr:street": "Perleberger Stra\u00dfe",
        "addr:suburb": "Moabit",
        "amenity": "police",
        "check_date": "2024-06-14",
        "name": "Polizei Abschnitt 27",
        "wheelchair": "limited"
      }
    },
    {
      "type": "node",
      "id": 84644753,
      "lat": 52.5049589,
      "lon": 13.3905699,
      "tags": {
        "addr:city": "Berlin",
        "addr:country": "DE",
        "addr:housenumber": "219",
        "addr:postcode": "10969",
        "addr:street": "Friedrichstra\u00dfe",
        "addr:suburb": "Kreuzberg",
        "amenity": "police",
        "check_date": "2025-05-09",
        "level": "0;1",
        "name": "Abschnitt 53 Kreuzberg-Nord",
        "name:de": "Abschnitt 53 Kreuzberg-Nord",
        "name:en": "District 53 North Kreuzberg",
        "operator": "Polizei Berlin",
        "operator:wikidata": "Q328480",
        "operator:wikipedia": "de:Polizei Berlin",
        "wheelchair": "no",
        "wikidata": "Q108875638"
      }
    },
    {
      "type": "node",
      "id": 98896966,
      "lat": 52.4874539,
      "lon": 13.3206881,
      "tags": {
        "addr:city": "Berlin",
        "addr:housenumber": "19-20",
        "addr:postcode": "10717",
        "addr:street": "Gasteiner Stra\u00dfe",
        "amenity": "fire_station",
        "check_date": "2025-06-09",
        "name": "Berufsfeuerwache Wilmersdorf",
        "operator": "Berliner Feuerwehr",
        "operator:wikidata": "Q821517",
        "operator:wikipedia": "de:Berliner Feuerwehr",
        "ref": "3400"
      }
    },
    {
      "type": "node",
      "id": 206102770,
      "lat": 52.4276915,
      "lon": 13.3475906,
      "tags": {
        "amenity": "police",
        "name": "Polizei Abschnitt 46",
        "operator": "Polizei Berlin",
        "operator:wikidata": "Q328480",
        "operator:wikipedia": "de:Polizei Berlin",
        "phone": "+49 30 4664 446 701",
        "website": "http://www.berlin.de/polizei/bezirk/dir4/a46.html",
        "wheelchair": "no"
      }
    },
    {
      "type": "node",
      "id": 242769298,
      "lat": 52.5280167,
      "lon": 13.2269115,
      "tags": {
        "amenity": "police",
        "name": "Polizei Abschnitt 22",
        "wheelchair": "yes"
      }
    },
    {
      "type": "node",
      "id": 244118624,
      "lat": 52.479156,
      "lon": 13.4347588,
      "tags": {
        "addr:city": "Berlin",
        "addr:country": "DE",
        "addr:housenumber": "9",
        "addr:postcode": "12053",
        "addr:street": "Rollbergstra\u00dfe",
        "amenity": "police",
        "contact:fax": "+49 30 4664555799",
        "contact:phone": "+49 30 4664555700",
        "contact:website": "https://www.berlin.de/polizei/dienststellen/polizei-in-den-bezirken/direktion-5/abschnitt-55/",
        "name": "Polizeiabschnitt 55",
        "wheelchair": "limited",
        "wikidata": "Q108875640"
      }
    },
    {
      "type": "node",
      "id": 253618460,
      "lat": 52.5118289,
      "lon": 13.4445489,
      "tags": {
        "addr:city": "Berlin",
        "addr:country": "DE",
        "addr:housenumber": "56",
        "addr:postcode": "10243",
        "addr:street": "R\u00fcdersdorfer Stra\u00dfe",
        "addr:suburb": "Friedrichshain",
        "amenity": "fire_station",
        "check_date": "2024-11-26",
        "contact:website": "https://www.berliner-feuerwehr.de/ueber-uns/standorte/feuerwachen/fw-friedrichshain-1200/",
        "name": "Berufsfeuerwache Friedrichshain",
        "note": "FW 1200 ist Betreuungswache f\u00fcr FF Friedrichshain (1201)",
        "operator": "Berliner Feuerwehr",
        "operator:wikidata": "Q821517",
        "ref": "1200",
        "wikidata": "Q61697268",
        "wikimedia_commons": "Category:Feuerwache Friedrichshain",
        "wikipedia": "de:Feuerwache Friedrichshain"
      }
    },
    {
      "type": "node",
      "id": 254089285,
      "lat": 52.3689395,
      "lon": 13.7020795,
      "tags": {
        "amenity": "fire_station",
        "name": "Freiwillige Feuerwehr Wernsdorf",
        "ref": "WDF"
      }
    },
    {
      "type": "node",
      "id": 261965140,
      "lat": 52.4922153,
      "lon": 13.4562264,
      "tags": {
        "addr:city": "Berlin",
        "addr:housenumber": "5-8",
        "addr:postcode": "12435",
        "addr:street": "Am Treptower Park",
        "amenity": "police",
        "building": "yes",
        "name": "Gemeinsames Terrorismusabwehrzentrum",
        "short_name": "GTAZ",
        "url": "https://www.bka.de/DE/UnsereAufgaben/Kooperationen/GTAZ/gtaz_node.html",
        "wikidata": "Q1411368",
        "wikipedia": "de:Gemeinsames Terrorismusabwehrzentrum"
      }
    },
    {
      "type": "node",
      "id": 262960560,
      "lat": 52.412424,
      "lon": 13.7535317,
      "tags": {
        "addr:city": "Erkner",
        "addr:housenumber": "16",
        "addr:postcode": "15537",
        "addr:street": "Am Kurpark",
        "amenity": "fire_station",
        "name": "Freiwillige Feuerwehr Erkner",
        "phone": "+49 3362 19296",
        "ref": "FDER",
        "website": "feuerwehr-erkner.de"
      }
    },
    {
      "type": "node",
      "id": 265636858,
      "lat": 52.7056914,
      "lon": 13.5411917,
      "tags": {
        "addr:city": "Bernau bei Berlin",
        "addr:country": "DE",
        "addr:housenumber": "10",
        "addr:postcode": "16321",
        "addr:street": "Hans-Wittwer-Stra\u00dfe",
        "addr:suburb": "Waldfrieden",
        "amenity": "police",
        "name": "Polizeirevier (BAB)"
      }
    },
    {
      "type": "node",
      "id": 270905719,
      "lat": 52.4367173,
      "lon": 13.716157,
      "tags": {
        "amenity": "fire_station",
        "name": "Freiwillige Feuerwehr Wilhelmshagen",
        "ref": "5430",
        "wikidata": "Q107538464"
      }
    },
    {
      "type": "node",
      "id": 297793037,
      "lat": 52.5472525,
      "lon": 13.0575695,
      "tags": {
        "addr:city": "Dallgow-D\u00f6beritz",
        "addr:country": "DE",
        "addr:housenumber": "1",
        "addr:postcode": "14624",
        "addr:street": "Triftstra\u00dfe",
        "amenity": "fire_station",
        "check_date": "2024-03-25",
        "name": "Freiwillige Feuerwehr Dallgow-D\u00f6beritz"
      }
    },
    {
      "type": "node",
      "id": 309402997,
      "lat": 52.3733085,
      "lon": 13.2605811,
      "tags": {
        "amenity": "fire_station",
        "name": "Freiwillige Feuerwehr Ruhlsdorf"
      }
    },
    {
      "type": "node",
      "id": 330880463,
      "lat": 52.5265525,
      "lon": 13.3891997,
      "tags": {
        "amenity": "fire_station",
        "name": "Freiwillige Feuerwehr Mitte",
        "operator": "Berliner Feuerwehr",
        "operator:wikidata": "Q821517",
        "ref": "1110",
        "wikidata": "Q107538332",
        "wikimedia_commons": "Category:Volunteer fire department in Berlin-Mitte"
      }
    },
    {
      "type": "node",
      "id": 332612710,
      "lat": 52.6065955,
      "lon": 13.2114269,
      "tags": {
        "amenity": "fire_station",
        "name": "Freiwillige Feuerwehr Heiligensee",
        "ref": "2410"
      }
    },
    {
      "type": "node",
      "id": 339387524,
      "lat": 52.6111032,
      "lon": 13.4830902,
      "tags": {
        "amenity": "fire_station",
        "check_date": "2024-03-17",
        "name": "Freiwillige Feuerwehr Karow",
        "ref": "2720"
      }
    },
    {
      "type": "node",
      "id": 343472804,
      "lat": 52.484016,
      "lon": 13.5206765,
      "tags": {
        "amenity": "fire_station",
        "name": "Berufsfeuerwache Karlshorst",
        "operator": "Berliner Feuerwehr",
        "operator:wikidata": "Q821517",
        "ref": "6500",
        "wikidata": "Q107538294"
      }
    },
    {
      "type": "node",
      "id": 365075276,
      "lat": 52.3588236,
      "lon": 13.5912062,
      "tags": {
        "amenity": "fire_station",
        "name": "Freiwillige Feuerwehr Schulzendorf",
        "website": "https://feuerwehr-schulzendorf.de/"
      }
    },
    {
      "type": "node",
      "id": 394556313,
      "lat": 52.6790371,
      "lon": 13.4394366,
      "tags": {
        "amenity": "fire_station",
        "website": "http://www.feuerwehr-schoenwalde.de"
      }
    },
    {
      "type": "node",
      "id": 450174418,
      "lat": 52.4838386,
      "lon": 13.520221,
      "tags": {
        "amenity": "fire_station",
        "name": "Freiwillige Feuerwehr Karlshorst",
        "ref": "6501"
      }
    },
    {
      "type": "node",
      "id": 471297769,
      "lat": 52.5239252,
      "lon": 13.7735422,
      "tags": {
        "amenity": "fire_station",
        "check_date": "2024-05-26",
        "name": "Freiwillige Feuerwehr Petershagen"
      }
    },
    {
      "type": "node",
      "id": 509897018,
      "lat": 52.5093215,
      "lon": 13.4968683,
      "tags": {
        "amenity": "police",
        "check_date": "2025-02-03",
        "level": "1",
        "name": "Bundespolizei",
        "operator": "Bundespolizei",
        "operator:short": "BPOL",
        "operator:wikidata": "Q56026",
        "operator:wikipedia": "de:Bundespolizei (Deutschland)",
        "wheelchair": "yes"
      }
    },
    {
      "type": "node",
      "id": 573418582,
      "lat": 52.513314,
      "lon": 13.238435,
      "tags": {
        "amenity": "police",
        "name": "Stadionwache",
        "name:ja": "\u30b9\u30bf\u30b8\u30a2\u30e0\u8b66\u5099",
        "wheelchair": "no"
      }
    },
    {
      "type": "node",
      "id": 577355077,
      "lat": 52.5407044,
      "lon": 13.3671285,
      "tags": {
        "addr:city": "Berlin",
        "addr:country": "DE",
        "addr:housenumber": "9",
        "addr:postcode": "13353",
        "addr:street": "Fennstra\u00dfe",
        "addr:suburb": "Wedding",
        "amenity": "fire_station",
        "name:signed": "no"
      }
    },
    {
      "type": "node",
      "id": 614482788,
      "lat": 52.524282,
      "lon": 13.4156959,
      "tags": {
        "addr:city": "Berlin",
        "addr:country": "DE",
        "addr:housenumber": "35",
        "addr:postcode": "10178",
        "addr:street": "Keibelstra\u00dfe",
        "addr:suburb": "Mitte",
        "amenity": "police",
        "contact:phone": "+49 30 4664332700",
        "contact:website": "https://www.berlin.de/polizei/dienststellen/landespolizeidirektion/direktion-5/abschnitt-57/",
        "name": "Polizei Berlin \u2013 Abschnitt 57",
        "operator": "Polizei Berlin",
        "operator:wikidata": "Q328480",
        "operator:wikipedia": "de:Polizei Berlin",
        "wheelchair": "yes",
        "wikidata": "Q108875642"
      }
    },
    {
      "type": "node",
      "id": 659031944,
      "lat": 52.5379765,
      "lon": 13.4523417,
      "tags": {
        "addr:city": "Berlin",
        "addr:country": "DE",
        "addr:housenumber": "101",
        "addr:postcode": "10407",
        "addr:street": "Storkower Stra\u00dfe",
        "addr:suburb": "Prenzlauer Berg",
        "amenity": "police",
        "check_date": "2025-06-30",
        "name": "Polizei Berlin Abschnitt 16",
        "operator": "Polizei Berlin",
        "operator:wikidata": "Q328480",
        "operator:wikipedia": "de:Polizei Berlin",
        "website": "http://www.berlin.de/polizei/bezirk/dir1/a16.html",
        "wheelchair": "limited",
        "wikidata": "Q108875617"
      }
    },
    {
      "type": "node",
      "id": 674086104,
      "lat": 52.5448495,
      "lon": 13.2103551,
      "tags": {
        "amenity": "fire_station",
        "check_date": "2024-03-08",
        "name": "Freiwillige Feuerwehr Spandau-Nord",
        "ref": "3101"
      }
    },
    {
      "type": "node",
      "id": 845722378,
      "lat": 52.5000473,
      "lon": 13.7403592,
      "tags": {
        "addr:city": "Fredersdorf-Vogelsdorf",
        "addr:housenumber": "76",
        "addr:postcode": "15370",
        "addr:street": "Frankfurter Chaussee",
        "addr:suburb": "Vogelsdorf",
        "amenity": "fire_station",
        "name": "Feuerwehr Vogelsdorf",
        "website": "https://www.feuerwehr-fredersdorf-vogelsdorf.de"
      }
    },
    {
      "type": "node",
      "id": 845728782,
      "lat": 52.468514,
      "lon": 13.7785962,
      "tags": {
        "amenity": "fire_station",
        "name": "Feuerwehr R\u00fcdersdorf"
      }
    },
    {
      "type": "node",
      "id": 919848981,
      "lat": 52.7270744,
      "lon": 12.9878884,
      "tags": {
        "addr:city": "Kremmen",
        "addr:country": "DE",
        "addr:housenumber": "14b",
        "addr:postcode": "16766",
        "addr:street": "Nauener Chaussee",
        "addr:suburb": "Staffelde",
        "amenity": "fire_station",
        "name": "Freiwillige Feuerwehr Staffelde/Gro\u00df-Ziethen"
      }
    },
    {
      "type": "node",
      "id": 944868560,
      "lat": 52.627041,
      "lon": 13.484559,
      "tags": {
        "amenity": "fire_station",
        "name": "GZS"
      }
    },
    {
      "type": "node",
      "id": 961413931,
      "lat": 52.7219355,
      "lon": 13.6277077,
      "tags": {
        "amenity": "fire_station",
        "check_date": "2024-04-19",
        "name": "Freiwillige Feuerwehr R\u00fcdnitz"
      }
    },
    {
      "type": "node",
      "id": 988558167,
      "lat": 52.5220276,
      "lon": 13.3659377,
      "tags": {
        "addr:city": "Berlin",
        "addr:housenumber": "145",
        "addr:postcode": "10557",
        "addr:street": "Alt-Moabit",
        "addr:suburb": "Moabit",
        "amenity": "police",
        "contact:phone": "+49 30 4664334700",
        "name": "Polizei Abschnitt 28",
        "operator": "Polizei Berlin",
        "operator:wikidata": "Q328480",
        "operator:wikipedia": "de:Polizei Berlin",
        "wheelchair": "yes",
        "wikidata": "Q108875627"
      }
    },
    {
      "type": "node",
      "id": 1003091301,
      "lat": 52.6003508,
      "lon": 13.7547968,
      "tags": {
        "addr:city": "Altlandsberg",
        "addr:country": "DE",
        "addr:housenumber": "7",
        "addr:postcode": "15345",
        "addr:street": "Alte Schulstra\u00dfe",
        "addr:suburb": "Wegendorf",
        "amenity": "fire_station",
        "entrance": "main",
        "image": "http://wiki.openstreetmap.org/wiki/File:Feuerwehr_Wegendorf.jpg",
        "name": "Freiwillige Feuerwehr Altlandsberg - L\u00f6schgruppe Wegendorf",
        "phone": "+49 33438 61814",
        "website": "http://feuerwehr.altlandsberg.de/index.php?page=kp_wegendorf"
      }
    },
    {
      "type": "node",
      "id": 1235571254,
      "lat": 52.6171547,
      "lon": 13.2446746,
      "tags": {
        "amenity": "police",
        "name": "2. Bereitschaftspolizeiabteilung",
        "short_name": "2. BPA",
        "website": "https://www.berlin.de/polizei/dienststellen/direktion-einsatz/bereitschaftspolizei/"
      }
    },
    {
      "type": "node",
      "id": 1271558626,
      "lat": 52.628927,
      "lon": 13.673693,
      "tags": {
        "addr:city": "Werneuchen",
        "addr:housenumber": "41a",
        "addr:postcode": "16356",
        "addr:street": "L\u00f6hmer Dorfstra\u00dfe",
        "addr:suburb": "L\u00f6hme",
        "amenity": "fire_station",
        "name": "Freiwillige Feuerwehr L\u00f6hme"
      }
    },
    {
      "type": "node",
      "id": 1271558629,
      "lat": 52.6220296,
      "lon": 13.6786091,
      "tags": {
        "amenity": "fire_station",
        "name": "Freiwillige Feuerwehr Seefeld"
      }
    },
    {
      "type": "node",
      "id": 1288824514,
      "lat": 52.5094753,
      "lon": 13.4353317,
      "tags": {
        "addr:city": "Berlin",
        "addr:country": "DE",
        "addr:postcode": "10243",
        "addr:suburb": "Friedrichshain",
        "amenity": "police",
        "check_date": "2024-11-27",
        "level": "0",
        "name": "Bundespolizei",
        "operator": "Bundespolizei",
        "operator:short": "BPOL",
        "operator:wikidata": "Q56026",
        "operator:wikipedia": "de:Bundespolizei (Deutschland)",
        "wheelchair": "limited"
      }
    },
    {
      "type": "node",
      "id": 1289506014,
      "lat": 52.5852358,
      "lon": 13.7895185,
      "tags": {
        "amenity": "fire_station",
        "name": "Freiwillige Feuerwehr Altlandsberg - L\u00f6schgruppe Buchholz"
      }
    },
    {
      "type": "node",
      "id": 1383496499,
      "lat": 52.392448,
      "lon": 13.5057116,
      "tags": {
        "addr:city": "Sch\u00f6nefeld",
        "addr:country": "DE",
        "addr:housenumber": "23",
        "addr:postcode": "12529",
        "addr:street": "Hans-Grade-Allee",
        "amenity": "fire_station",
        "check_date": "2025-05-25",
        "name": "Freiwillige Feuerwehr Sch\u00f6nefeld",
        "operator": "Gemeinde Sch\u00f6nefeld",
        "website": "http://www.ff-schoenefeld.de"
      }
    },
    {
      "type": "node",
      "id": 1450877655,
      "lat": 52.6253986,
      "lon": 13.5421057,
      "tags": {
        "amenity": "fire_station",
        "name": "Freiwillige Feuerwehr Schwanebeck"
      }
    },
    {
      "type": "node",
      "id": 1631758479,
      "lat": 52.5481974,
      "lon": 13.8595905,
      "tags": {
        "amenity": "police",
        "check_date": "2024-06-14",
        "name": "Strausberg, Polizeiinspektion M\u00e4rkisch-Oderland",
        "wheelchair": "yes"
      }
    },
    {
      "type": "node",
      "id": 1757027618,
      "lat": 52.5524552,
      "lon": 13.7764693,
      "tags": {
        "amenity": "fire_station",
        "name": "Freiwillige Feuerwehr Altlandsberg - L\u00f6schgruppe Bruchm\u00fchle"
      }
    },
    {
      "type": "node",
      "id": 2007352905,
      "lat": 52.637224,
      "lon": 13.0416805,
      "tags": {
        "amenity": "fire_station",
        "name": "Freiwillige Feuerwehr Pausin"
      }
    },
    {
      "type": "node",
      "id": 2472635508,
      "lat": 52.6548354,
      "lon": 13.4466076,
      "tags": {
        "amenity": "fire_station"
      }
    },
    {
      "type": "node",
      "id": 2891400692,
      "lat": 52.5824041,
      "lon": 13.289049,
      "tags": {
        "addr:city": "Berlin",
        "addr:country": "DE",
        "addr:housenumber": "35",
        "addr:postcode": "13507",
        "addr:street": "Berliner Stra\u00dfe",
        "addr:suburb": "Tegel",
        "amenity": "police",
        "contact:fax": "+49 30 4664111799",
        "contact:phone": "+49 30 4664111701",
        "contact:website": "https://www.berlin.de/polizei/dienststellen/landespolizeidirektion/direktion-1/abschnitt-11/",
        "name": "Polizei Berlin \u2013 Abschnitt 11",
        "operator": "Polizei Berlin",
        "operator:wikidata": "Q328480",
        "wikidata": "Q108875609"
      }
    },
    {
      "type": "node",
      "id": 2960443393,
      "lat": 52.4266524,
      "lon": 13.7418331,
      "tags": {
        "amenity": "police",
        "check_date": "2024-05-19",
        "name": "Polizei Land Brandenburg - Polizeirevier",
        "note": "not a duplicate, there are indeed three police institutions in this building",
        "wheelchair": "yes"
      }
    },
    {
      "type": "node",
      "id": 2960443394,
      "lat": 52.4266407,
      "lon": 13.7419452,
      "tags": {
        "amenity": "police",
        "check_date": "2024-05-19",
        "name": "Polizei Land Brandenburg - Revierpolizei",
        "note": "not a duplicate, there are indeed three police institutions in this building",
        "wheelchair": "yes"
      }
    },
    {
      "type": "node",
      "id": 2984877999,
      "lat": 52.4053027,
      "lon": 12.9907939,
      "tags": {
        "addr:city": "Potsdam",
        "addr:country": "DE",
        "addr:housenumber": "1",
        "addr:postcode": "14469",
        "addr:street": "Baumschulenweg",
        "addr:suburb": "Eiche",
        "amenity": "fire_station",
        "check_date": "2024-09-22",
        "contact:email": "ff-eiche@gmx.de",
        "contact:phone": "+49 331 500758",
        "contact:website": "https://feuerwehr-eiche.jimdofree.com/",
        "name": "Freiwillige Feuerwehr Eiche"
      }
    },
    {
      "type": "node",
      "id": 3127986846,
      "lat": 52.3551909,
      "lon": 13.3089087,
      "tags": {
        "addr:city": "Gro\u00dfbeeren",
        "addr:country": "DE",
        "addr:housenumber": "2",
        "addr:postcode": "14979",
        "addr:street": "Am Rathaus",
        "amenity": "police",
        "name": "Sprechzimmer Revierpolizei Gro\u00dfbeeren",
        "police": "offices"
      }
    },
    {
      "type": "node",
      "id": 3230826578,
      "lat": 52.5122072,
      "lon": 13.444588,
      "tags": {
        "addr:city": "Berlin",
        "addr:country": "DE",
        "addr:housenumber": "10",
        "addr:postcode": "10243",
        "addr:street": "Wedekindstra\u00dfe",
        "addr:suburb": "Friedrichshain",
        "amenity": "police",
        "check_date": "2024-11-26",
        "contact:website": "https://www.berlin.de/polizei/dienststellen/polizei-in-den-bezirken/direktion-5/abschnitt-51/",
        "name": "Polizei Berlin Abschnitt 51",
        "operator": "Polizei Berlin",
        "operator:wikidata": "Q328480",
        "operator:wikipedia": "de:Polizei Berlin",
        "wheelchair": "yes",
        "wikidata": "Q108875636"
      }
    },
    {
      "type": "node",
      "id": 3354419269,
      "lat": 52.5017233,
      "lon": 13.3325773,
      "tags": {
        "addr:city": "Berlin",
        "addr:country": "DE",
        "addr:housenumber": "10-12",
        "addr:postcode": "10789",
        "addr:street": "Rankestra\u00dfe",
        "addr:suburb": "Charlottenburg",
        "amenity": "fire_station",
        "emergency": "ambulance_station",
        "name": "Berufsfeuerwache Ranke",
        "operator": "Berliner Feuerwehr",
        "operator:wikidata": "Q821517",
        "ref": "3500",
        "website": "http://www.feuerwehr.info/feuerwehren/berliner-feuerwehr-wache-3500-ranke/",
        "wikidata": "Q107538144"
      }
    },
    {
      "type": "node",
      "id": 3431432018,
      "lat": 52.6572049,
      "lon": 13.3388101,
      "tags": {
        "addr:city": "M\u00fchlenbecker Land",
        "addr:housenumber": "1",
        "addr:postcode": "16567",
        "addr:street": "Am Anger",
        "addr:suburb": "Sch\u00f6nflie\u00df",
        "amenity": "fire_station",
        "name": "Freiwillige Feuerwehr Sch\u00f6nflie\u00df",
        "operator": "Gemeinde M\u00fchlenbecker Land"
      }
    },
    {
      "type": "node",
      "id": 3618200199,
      "lat": 52.471959,
      "lon": 13.7847734,
      "tags": {
        "amenity": "police"
      }
    },
    {
      "type": "node",
      "id": 3868548230,
      "lat": 52.351423,
      "lon": 13.419108,
      "tags": {
        "addr:city": "Blankenfelde-Mahlow",
        "addr:country": "DE",
        "addr:housenumber": "2",
        "addr:postcode": "15827",
        "addr:street": "Heckenrosenstra\u00dfe",
        "amenity": "police",
        "wheelchair": "limited"
      }
    },
    {
      "type": "node",
      "id": 4177142284,
      "lat": 52.7089499,
      "lon": 13.7200278,
      "tags": {
        "amenity": "fire_station",
        "name": "Tempelfelde"
      }
    },
    {
      "type": "node",
      "id": 4298100229,
      "lat": 52.724211,
      "lon": 13.1912854,
      "tags": {
        "amenity": "police",
        "name": "Polizeirevier Leegebruch"
      }
    },
    {
      "type": "node",
      "id": 4314579068,
      "lat": 52.4689781,
      "lon": 13.4384198,
      "tags": {
        "amenity": "fire_station",
        "check_date": "2024-04-23",
        "name": "Freiwillige Feuerwehr Neuk\u00f6lln",
        "ref": "5101"
      }
    },
    {
      "type": "node",
      "id": 4706714959,
      "lat": 52.5095529,
      "lon": 13.5564884,
      "tags": {
        "addr:city": "Berlin",
        "addr:housenumber": "58",
        "addr:postcode": "12683",
        "addr:street": "Alt-Biesdorf",
        "amenity": "fire_station",
        "name": "Freiwillige Feuerwehr Biesdorf",
        "operator": "Berliner Feuerwehr",
        "operator:wikidata": "Q821517",
        "phone": "+49 30 3876120105",
        "ref": "6120",
        "website": "https://www.berliner-feuerwehr.de/ueber-uns/standorte/freiwillige-feuerwehr/ff-biesdorf/",
        "wikidata": "Q107526693"
      }
    },
    {
      "type": "node",
      "id": 5523199172,
      "lat": 52.5682808,
      "lon": 13.1035647,
      "tags": {
        "amenity": "fire_station",
        "contact:website": "http://www.feuerwehr-falkensee.de/",
        "name": "Feuerwache Falkensee"
      }
    },
    {
      "type": "node",
      "id": 5764101263,
      "lat": 52.495526,
      "lon": 13.4032215,
      "tags": {
        "amenity": "fire_station",
        "check_date": "2025-02-25",
        "name": "Freiwillige Feuerwehr Urban",
        "ref": "1501"
      }
    },
    {
      "type": "node",
      "id": 5764101264,
      "lat": 52.4955406,
      "lon": 13.4029642,
      "tags": {
        "amenity": "fire_station",
        "name": "Berufsfeuerwache Urban",
        "operator": "Berliner Feuerwehr",
        "operator:wikidata": "Q821517",
        "ref": "1500",
        "wikidata": "Q107538288",
        "wikimedia_commons": "Category:Feuerwache Urban"
      }
    },
    {
      "type": "node",
      "id": 6482848243,
      "lat": 52.6625773,
      "lon": 13.3781408,
      "tags": {
        "amenity": "police",
        "name": "Revierpolizist",
        "opening_hours": "Tu 15:00-18:00"
      }
    },
    {
      "type": "node",
      "id": 6621423513,
      "lat": 52.5875384,
      "lon": 13.3410448,
      "tags": {
        "addr:city": "Berlin",
        "addr:country": "DE",
        "addr:housenumber": "55",
        "addr:postcode": "13437",
        "addr:street": "Roedernallee",
        "addr:suburb": "Reinickendorf",
        "amenity": "fire_station",
        "name": "Freiwillige Feuerwehr Wittenau",
        "ref": "2201"
      }
    },
    {
      "type": "node",
      "id": 6621423514,
      "lat": 52.4296508,
      "lon": 13.3802828,
      "tags": {
        "addr:city": "Berlin",
        "addr:country": "DE",
        "addr:housenumber": "15",
        "addr:postcode": "12277",
        "addr:street": "Wilhelm-von-Siemens-Stra\u00dfe",
        "addr:suburb": "Mariendorf",
        "amenity": "fire_station",
        "check_date": "2025-06-13",
        "name": "Freiwillige Feuerwehr Marienfelde",
        "ref": "4701"
      }
    },
    {
      "type": "node",
      "id": 6621423515,
      "lat": 52.5866698,
      "lon": 13.2860944,
      "tags": {
        "addr:city": "Berlin",
        "addr:country": "DE",
        "addr:housenumber": "16",
        "addr:postcode": "13507",
        "addr:street": "Berliner Stra\u00dfe",
        "addr:suburb": "Tegel",
        "amenity": "fire_station",
        "check_date": "2024-04-06",
        "name": "Freiwillige Feuerwehr Tegel",
        "ref": "2401"
      }
    },
    {
      "type": "node",
      "id": 6621423516,
      "lat": 52.5091185,
      "lon": 13.2960373,
      "tags": {
        "addr:city": "Berlin",
        "addr:country": "DE",
        "addr:housenumber": "9-10",
        "addr:postcode": "14057",
        "addr:street": "Suarezstra\u00dfe",
        "addr:suburb": "Charlottenburg",
        "amenity": "fire_station",
        "check_date": "2024-03-19",
        "name": "Freiwillige Feuerwehr Suarez",
        "ref": "3301"
      }
    },
    {
      "type": "node",
      "id": 6621423517,
      "lat": 52.5117447,
      "lon": 13.4446081,
      "tags": {
        "addr:city": "Berlin",
        "addr:country": "DE",
        "addr:housenumber": "57",
        "addr:postcode": "10243",
        "addr:street": "R\u00fcdersdorfer Stra\u00dfe",
        "addr:suburb": "Friedrichshain",
        "amenity": "fire_station",
        "check_date": "2024-09-10",
        "contact:website": "https://www.berliner-feuerwehr.de/ueber-uns/standorte/freiwillige-feuerwehr/ff-friedrichshain-1201/",
        "name": "Freiwillige Feuerwehr Friedrichshain",
        "ref": "1201"
      }
    },
    {
      "type": "node",
      "id": 8895164256,
      "lat": 52.5714204,
      "lon": 13.6173027,
      "tags": {
        "addr:city": "Ahrensfelde",
        "addr:housenumber": "1",
        "addr:postcode": "16356",
        "addr:street": "Krummenseer Weg",
        "addr:suburb": "Mehrow",
        "amenity": "fire_station",
        "name": "Freiwillige Feuerwehr Mehrow",
        "wikidata": "Q107357121"
      }
    },
    {
      "type": "node",
      "id": 9016039014,
      "lat": 52.3664696,
      "lon": 13.8385436,
      "tags": {
        "addr:city": "Gr\u00fcnheide (Mark)",
        "addr:housenumber": "1",
        "addr:postcode": "15537",
        "addr:street": "Sieverslaker Stra\u00dfe",
        "addr:suburb": "Spreeau",
        "amenity": "fire_station",
        "name": "Freiwillige Feuerwehr Gr\u00fcnheide (Mark) - Ortswehr Spreeau",
        "operator": "Gemeinde Gr\u00fcnheide (Mark)"
      }
    },
    {
      "type": "node",
      "id": 9673650886,
      "lat": 52.3833671,
      "lon": 13.1443528,
      "tags": {
        "amenity": "police",
        "name": "Bundespolizei",
        "operator": "Bundespolizei",
        "operator:short": "BPOL",
        "operator:wikidata": "Q56026",
        "police": "offices"
      }
    },
    {
      "type": "node",
      "id": 10039426205,
      "lat": 52.5564395,
      "lon": 13.4598304,
      "tags": {
        "amenity": "fire_station",
        "name": "Freiwillige Feuerwehr Wei\u00dfensee",
        "ref": "6301"
      }
    },
    {
      "type": "node",
      "id": 10671508605,
      "lat": 52.5001222,
      "lon": 13.4183773,
      "tags": {
        "amenity": "police",
        "name": "Polizeistation",
        "name:en": "Police station"
      }
    },
    {
      "type": "node",
      "id": 10725838709,
      "lat": 52.6999222,
      "lon": 13.5933694,
      "tags": {
        "addr:city": "Bernau bei Berlin",
        "addr:housenumber": "1a",
        "addr:postcode": "16321",
        "addr:street": "Otto-Schmidt-Stra\u00dfe",
        "addr:suburb": "Ladeburg",
        "amenity": "fire_station",
        "name": "Freiwillige Feuerwehr Bernau bei Berlin - L\u00f6schzug Ladeburg",
        "operator": "Stadt Bernau bei Berlin",
        "website": "www.feuerwehr-bernau.de"
      }
    },
    {
      "type": "node",
      "id": 10815091249,
      "lat": 52.6547433,
      "lon": 12.9783377,
      "tags": {
        "amenity": "fire_station",
        "name": "Freiwillige Feuerwehr Paaren im Glien"
      }
    },
    {
      "type": "node",
      "id": 11207192534,
      "lat": 52.6962091,
      "lon": 13.1121651,
      "tags": {
        "addr:city": "Oberkr\u00e4mer",
        "addr:housenumber": "29",
        "addr:postcode": "16727",
        "addr:street": "Am Eichenring",
        "amenity": "police",
        "name": "Sprechzimmer Revierpolizei",
        "opening_hours": "Tu 16:00-18:00",
        "operator": "Polizei Brandenburg",
        "operator:wikidata": "Q2101665",
        "phone": "+49 3301 8511056",
        "website": "https://polizei.brandenburg.de/standorte_und_erreichbarkeiten/id/66330/"
      }
    },
    {
      "type": "node",
      "id": 11208742256,
      "lat": 52.5224588,
      "lon": 13.3330505,
      "tags": {
        "amenity": "fire_station",
        "name": "Freiwillige Feuerwehr Berlin-Moabit",
        "ref": "1401"
      }
    },
    {
      "type": "node",
      "id": 11208742257,
      "lat": 52.5226342,
      "lon": 13.3330907,
      "tags": {
        "amenity": "fire_station",
        "emergency": "ambulance_station",
        "name": "Berufsfeuerwache Berlin-Moabit",
        "phone": "+49 30 387 1400 105",
        "ref": "1400",
        "website": "https://www.berliner-feuerwehr.de/ueber-uns/standorte/feuerwache-moabit/"
      }
    },
    {
      "type": "node",
      "id": 11568947841,
      "lat": 52.5083788,
      "lon": 13.333723,
      "tags": {
        "amenity": "police",
        "name": "Bundespolizei",
        "operator": "Bundespolizei",
        "operator:short": "BPOL",
        "operator:wikidata": "Q56026",
        "operator:wikipedia": "de:Bundespolizei (Deutschland)",
        "wheelchair": "yes"
      }
    },
    {
      "type": "node",
      "id": 12001100031,
      "lat": 52.3472656,
      "lon": 13.6458215,
      "tags": {
        "amenity": "fire_station"
      }
    },
    {
      "type": "node",
      "id": 12161696502,
      "lat": 52.4689123,
      "lon": 13.3758937,
      "tags": {
        "amenity": "police",
        "name": "Polizei / Police"
      }
    },
    {
      "type": "node",
      "id": 12643808080,
      "lat": 52.437223,
      "lon": 13.2647815,
      "tags": {
        "amenity": "fire_station",
        "name": "Freiwillige Feuerwehr Zehlendorf",
        "ref": "4101"
      }
    },
    {
      "type": "node",
      "id": 12705321651,
      "lat": 52.5388723,
      "lon": 13.8178673,
      "tags": {
        "amenity": "police",
        "name": "Revierpolizei Land Brandenburg"
      }
    },
    {
      "type": "node",
      "id": 12743368984,
      "lat": 52.5390011,
      "lon": 13.8402805,
      "tags": {
        "amenity": "police",
        "name": "Revierpolizei",
        "operator": "Polizeidirektion Ost",
        "wheelchair": "yes"
      }
    },
    {
      "type": "node",
      "id": 12847789059,
      "lat": 52.4978807,
      "lon": 13.4678385,
      "tags": {
        "addr:city": "Berlin",
        "addr:housenumber": "3",
        "addr:postcode": "10317",
        "addr:street": "Kynaststra\u00dfe",
        "amenity": "police",
        "name": "Bundeskriminalamt Berlin - Liegenschaft B4",
        "operator": "Bundeskriminalamt",
        "operator:short": "BKA",
        "operator:wikidata": "Q56030"
      }
    },
    {
      "type": "way",
      "id": 4675996,
      "nodes": [
        29697001,
        2845018928,
        2845018924,
        2845018951,
        2845018918,
        2845018917,
        10741512770,
        29697002,
        29697003,
        2845018923,
        10706350937,
        29696998,
        4775025158,
        1232835368,
        1232835424,
        29697001
      ],
      "tags": {
        "addr:city": "Berlin",
        "addr:housenumber": "57",
        "addr:postcode": "10557",
        "addr:street": "Invalidenstra\u00dfe",
        "amenity": "police",
        "contact:website": "https://www.berlin.de/polizei/dienststellen/landespolizeidirektion/",
        "name": "Landespolizeidirektion",
        "operator": "Polizei Berlin",
        "operator:wikidata": "Q328480",
        "phone": "+49 30 46640",
        "short_name": "LPD",
        "wikidata": "Q108870749"
      }
    },
    {
      "type": "way",
      "id": 5095457,
      "nodes": [
        2882565512,
        620487372,
        218417201,
        218417196,
        5792562051,
        797129162,
        218417190,
        9090186371,
        218417188,
        5792562052,
        5792562753,
        218417185,
        5792562754,
        5792562755,
        34784766,
        5792562760,
        5792562756,
        34784767,
        5792562757,
        5792562758,
        5467831176,
        81210450,
        5792562761,
        34784768,
        5792505356,
        34784769,
        5792505355,
        250194059,
        5792505354,
        34784763,
        5792562982,
        5792505353,
        5792562983,
        34784771,
        900467287,
        5792562815,
        2882565512
      ],
      "tags": {
        "access": "no",
        "amenity": "police",
        "check_date": "2024-05-13",
        "name": "Polizeidirektion 2 / Polizeiakademie",
        "opening_hours": "Mo-Th 07:00-15:30; Fr 07:00-15:00",
        "police": "academy",
        "website": "https://www.berlin.de/polizei/dienststellen/polizeiakademie/"
      }
    },
    {
      "type": "way",
      "id": 24478008,
      "nodes": [
        266139232,
        266139233,
        266139234,
        2532820759,
        266139235,
        4157919312,
        4157919314,
        4157919313,
        4157919311,
        266139232
      ],
      "tags": {
        "addr:city": "Gr\u00fcnheide (Mark)",
        "addr:country": "DE",
        "addr:housenumber": "1a",
        "addr:postcode": "15537",
        "addr:street": "Spreenhagener Stra\u00dfe",
        "addr:suburb": "Spreeau",
        "amenity": "fire_station",
        "building": "yes",
        "name": "Freiwillige Feuerwehr Gr\u00fcnheide (Mark) - Ortswehr Spreeau",
        "operator": "Gemeinde Gr\u00fcnheide (Mark)"
      }
    },
    {
      "type": "way",
      "id": 24709588,
      "nodes": [
        268566717,
        5907801407,
        268566719,
        268566721,
        268566722,
        3413343966,
        3413343965,
        268566723,
        268566717
      ],
      "tags": {
        "addr:city": "Petershagen/Eggersdorf",
        "addr:housenumber": "35a",
        "addr:postcode": "15345",
        "addr:street": "Karl-Liebknecht-Stra\u00dfe",
        "addr:suburb": "Eggersdorf",
        "amenity": "fire_station",
        "building": "yes",
        "check_date": "2024-04-26",
        "mapillary": "596742658449838",
        "name": "Freiwillige Feuerwehr Petershagen-Eggersdorf",
        "wikimedia_commons": "File:202406017 xl 0555-Freiwillige Feuerwehr Petershagen-Eggersdorf.jpg"
      }
    },
    {
      "type": "way",
      "id": 25492717,
      "nodes": [
        2841098919,
        2841098812,
        1041298415,
        3108260275,
        4742043180,
        2841098919
      ],
      "tags": {
        "addr:city": "Berlin",
        "addr:country": "DE",
        "addr:housenumber": "15",
        "addr:postcode": "12277",
        "addr:street": "Wilhelm-von-Siemens-Stra\u00dfe",
        "addr:suburb": "Mariendorf",
        "amenity": "fire_station",
        "name": "Berufsfeuerwache Marienfelde",
        "operator": "Berliner Feuerwehr",
        "operator:wikidata": "Q821517",
        "ref": "4700",
        "wikidata": "Q107538419"
      }
    },
    {
      "type": "way",
      "id": 27129981,
      "nodes": [
        297656804,
        9085064071,
        9085064070,
        9085064069,
        9085064067,
        297656805,
        9085064068,
        297656806,
        4427665029,
        4427665021,
        4427665024,
        4427665031,
        4427665030,
        4427665032,
        297656807,
        297656804
      ],
      "tags": {
        "addr:city": "Hohen Neuendorf",
        "addr:country": "DE",
        "addr:housenumber": "8",
        "addr:postcode": "16562",
        "addr:street": "Triftstra\u00dfe",
        "addr:suburb": "Bergfelde",
        "amenity": "fire_station",
        "building": "yes",
        "building:colour": "#f4e7c6",
        "building:levels": "1",
        "email": "info@feuerwehr-bergfelde.de",
        "fax": "+493303213581",
        "image": "https://www.feuerwehr-bergfelde.de/images/wache-02.JPG",
        "name": "Freiwillige Feuerwehr Bergfelde",
        "phone": "+493303404350",
        "roof:colour": "#c06a48",
        "roof:shape": "gabled",
        "website": "https://www.feuerwehr-bergfelde.de"
      }
    },
    {
      "type": "way",
      "id": 27138929,
      "nodes": [
        297753329,
        8014572397,
        8014572398,
        8014572399,
        297753331,
        297753332,
        8014572400,
        8014572401,
        297753333,
        7449742581,
        7449742582,
        7449742583,
        7449742580,
        297753335,
        431165718,
        7449742579,
        8014572394,
        297753336,
        8014572395,
        8014572396,
        297753329
      ],
      "tags": {
        "amenity": "fire_station",
        "building": "yes",
        "description": "Geb\u00e4ude G016",
        "name": "Flughafenfeuerwehr Nord",
        "ref": "D51892"
      }
    },
    {
      "type": "way",
      "id": 27168946,
      "nodes": [
        298096227,
        298096226,
        2833879056,
        298096225,
        2833879059,
        2255293447,
        3799657016,
        2255293448,
        86058358,
        86058357,
        5312276082,
        5312276087,
        5312276086,
        86058351,
        5312276084,
        5312276085,
        5312276083,
        86058346,
        2833879075,
        298096230,
        2833879068,
        2833879071,
        298096231,
        3085066239,
        2833879065,
        2833879064,
        298096227
      ],
      "tags": {
        "amenity": "police",
        "name": "Bundespolizeidirektion Berlin",
        "operator": "Bundespolizei",
        "operator:short": "BPOL",
        "operator:wikidata": "Q56026",
        "police": "offices",
        "surveillance": "outdoor",
        "website": "https://www.bundespolizei.de/Web/DE/05Die-Bundespolizei/03Organisation/02Direktionen/Berlin/berlin_node.html"
      }
    },
    {
      "type": "way",
      "id": 27381417,
      "nodes": [
        3235750583,
        3235750582,
        3235750569,
        3235750572,
        3235750576,
        3235750577,
        3235750583
      ],
      "tags": {
        "addr:city": "Oberkr\u00e4mer",
        "addr:country": "DE",
        "addr:housenumber": "37",
        "addr:postcode": "16727",
        "addr:street": "Lindenallee",
        "addr:suburb": "Vehlefanz",
        "amenity": "fire_station",
        "building": "yes",
        "name": "Freiwillige Feuerwehr Vehlefanz"
      }
    },
    {
      "type": "way",
      "id": 27597487,
      "nodes": [
        303044385,
        303044387,
        303044388,
        303044386,
        303044385
      ],
      "tags": {
        "addr:city": "Teltow",
        "addr:country": "DE",
        "addr:housenumber": "1C",
        "addr:postcode": "14513",
        "addr:street": "Bertholdstra\u00dfe",
        "amenity": "fire_station",
        "building": "public",
        "building:levels": "2",
        "contact:email": "ffteltow-feuerwehr@teltow.de",
        "contact:phone": "+49 3328 331 781",
        "contact:website": "https://www.teltow.de/teltow/feuerwehr/freiwillige-feuerwehr-teltow.html",
        "name": "Freiwillige Feuerwehr Teltow"
      }
    },
    {
      "type": "way",
      "id": 28020466,
      "nodes": [
        3474759065,
        3474759000,
        3474758961,
        3474759025,
        3474759065
      ],
      "tags": {
        "addr:city": "Teltow",
        "addr:country": "DE",
        "addr:housenumber": "3",
        "addr:postcode": "14513",
        "addr:street": "Potsdamer Stra\u00dfe",
        "amenity": "police",
        "building": "yes",
        "building:levels": "2",
        "check_date": "2024-08-04",
        "name": "Polizeirevier Teltow",
        "opening_hours": "24/7",
        "phone": "+49 3328 4370"
      }
    },
    {
      "type": "way",
      "id": 28026882,
      "nodes": [
        3649710390,
        10199452440,
        9709366257,
        3649710361,
        307742785,
        3649710343,
        3034738501,
        3649710328,
        3649710221,
        307742816,
        3649710197,
        3649710222,
        3649710352,
        3649710348,
        3649710350,
        6399651173,
        3649710366,
        3649710364,
        3649710373,
        3649710378,
        3649710390
      ],
      "tags": {
        "addr:city": "Berlin",
        "addr:country": "DE",
        "addr:housenumber": "28",
        "addr:postcode": "13357",
        "addr:street": "Pankstra\u00dfe",
        "addr:suburb": "Gesundbrunnen",
        "amenity": "police",
        "building": "commercial",
        "building:levels": "4",
        "contact:phone": "+49 30 4664 11 87 01",
        "name": "Polizei Abschnitt 18",
        "operator": "Polizei Berlin",
        "operator:wikidata": "Q328480",
        "roof:levels": "0",
        "roof:shape": "gabled",
        "source": "Geoportal Berlin / Hauskoordinaten",
        "wheelchair": "yes"
      }
    },
    {
      "type": "way",
      "id": 28490757,
      "nodes": [
        313005442,
        313005441,
        313009693,
        313009695,
        4297447949,
        5015175196,
        3768974814,
        313005442
      ],
      "tags": {
        "addr:city": "Potsdam",
        "addr:country": "DE",
        "addr:housename": "Haus B",
        "addr:housenumber": "11",
        "addr:postcode": "14467",
        "addr:street": "Henning-von-Tresckow-Stra\u00dfe",
        "amenity": "police",
        "architect": "Georg Christian Unger",
        "bldam:criteria": "Baudenkmal",
        "building": "civic",
        "building:levels": "2",
        "description": "Palastartiger zweigeschossiger Putzbau mit ionischen Kolossalpilastern und Segmentgiebel \u00fcber der mittleren Portalachse. Errichtet 1722, die Fassade 1787 neu gestaltet, 1936 wiederhergestellt.",
        "heritage": "4",
        "heritage:operator": "bldam",
        "heritage:website": "https://ns.gis-bldam-brandenburg.de/hida4web/view?docId=obj09155082.xml",
        "image": "https://upload.wikimedia.org/wikipedia/commons/a/ae/Henning-von-Tresckow-Stra%C3%9Fe_11_06-2013.JPG",
        "name": "Polizeiwache Mitte",
        "old_name": "Garnisonschule",
        "operator": "Polizeiinspektion Potsdam",
        "ref:bldam": "09155082",
        "roof:levels": "2",
        "roof:material": "roof_tiles",
        "roof:shape": "mansard",
        "start_date": "1722",
        "wikidata": "Q115640961"
      }
    },
    {
      "type": "way",
      "id": 28974126,
      "nodes": [
        318596406,
        344477952,
        318596407,
        344478011,
        318596408,
        11953463455,
        4332055185,
        318596409,
        318596410,
        344478729,
        11953463454,
        11953463453,
        318596411,
        11953463456,
        11953463462,
        344479189,
        318596406
      ],
      "tags": {
        "amenity": "police",
        "barrier": "fence",
        "name": "Bundespolizei Blumberg",
        "operator": "Bundespolizei",
        "operator:short": "BPOL",
        "operator:wikidata": "Q56026"
      }
    },
    {
      "type": "node",
      "id": 1896580579,
      "lat": 52.3637141,
      "lon": 12.9722195
    },
    {
      "type": "node",
      "id": 1896580586,
      "lat": 52.3639033,
      "lon": 12.9720086
    },
    {
      "type": "node",
      "id": 1896580587,
      "lat": 52.3639033,
      "lon": 12.9722197
    },
    {
      "type": "node",
      "id": 1897684344,
      "lat": 52.3637142,
      "lon": 12.9720084
    },
    {
      "type": "node",
      "id": 9327430193,
      "lat": 52.3637886,
      "lon": 12.9720085
    },
    {
      "type": "node",
      "id": 9327430201,
      "lat": 52.3637748,
      "lon": 12.9722196
    },
    {
      "type": "node",
      "id": 304685986,
      "lat": 52.4058401,
      "lon": 12.9996788
    },
    {
      "type": "node",
      "id": 3059827146,
      "lat": 52.4055303,
      "lon": 13.0017469
    },
    {
      "type": "node",
      "id": 3059827147,
      "lat": 52.4058401,
      "lon": 13.0010985
    },
    {
      "type": "node",
      "id": 3167463976,
      "lat": 52.4058401,
      "lon": 12.9997219
    },
    {
      "type": "node",
      "id": 8699117613,
      "lat": 52.4057465,
      "lon": 13.0017421
    },
    {
      "type": "node",
      "id": 8699117614,
      "lat": 52.4058545,
      "lon": 13.0017398
    },
    {
      "type": "node",
      "id": 304685917,
      "lat": 52.406144,
      "lon": 13.0017334
    },
    {
      "type": "node",
      "id": 304686498,
      "lat": 52.4079458,
      "lon": 13.0004402
    },
    {
      "type": "node",
      "id": 1420901681,
      "lat": 52.4064096,
      "lon": 12.9998735
    },
    {
      "type": "node",
      "id": 3059827149,
      "lat": 52.4061494,
      "lon": 13.0015276
    },
    {
      "type": "node",
      "id": 3158589170,
      "lat": 52.4059614,
      "lon": 13.0012667
    },
    {
      "type": "node",
      "id": 3158633581,
      "lat": 52.4095368,
      "lon": 13.0014484
    },
    {
      "type": "node",
      "id": 3158633584,
      "lat": 52.4089175,
      "lon": 13.0011414
    },
    {
      "type": "node",
      "id": 3167463963,
      "lat": 52.4076919,
      "lon": 13.0003246
    },
    {
      "type": "node",
      "id": 3167463964,
      "lat": 52.4077256,
      "lon": 13.0003365
    },
    {
      "type": "node",
      "id": 4341692712,
      "lat": 52.4235511,
      "lon": 12.9970982
    },
    {
      "type": "node",
      "id": 4341692713,
      "lat": 52.4235385,
      "lon": 12.9970925
    },
    {
      "type": "node",
      "id": 4341692714,
      "lat": 52.423522,
      "lon": 12.9971895
    },
    {
      "type": "node",
      "id": 4341692715,
      "lat": 52.4235894,
      "lon": 12.9972202
    },
    {
      "type": "node",
      "id": 4341692716,
      "lat": 52.423597,
      "lon": 12.9971758
    },
    {
      "type": "node",
      "id": 4341692717,
      "lat": 52.4236818,
      "lon": 12.9972061
    },
    {
      "type": "node",
      "id": 4341692718,
      "lat": 52.4237147,
      "lon": 12.9970121
    },
    {
      "type": "node",
      "id": 4341692719,
      "lat": 52.4236844,
      "lon": 12.9969982
    },
    {
      "type": "node",
      "id": 4341692721,
      "lat": 52.423653,
      "lon": 12.9968617
    },
    {
      "type": "node",
      "id": 4341692722,
      "lat": 52.4236494,
      "lon": 12.9968829
    },
    {
      "type": "node",
      "id": 4341692723,
      "lat": 52.4236046,
      "lon": 12.9968625
    },
    {
      "type": "node",
      "id": 4341692724,
      "lat": 52.4235887,
      "lon": 12.996956
    },
    {
      "type": "node",
      "id": 4341692725,
      "lat": 52.4235763,
      "lon": 12.9969503
    },
    {
      "type": "node",
      "id": 11775913684,
      "lat": 52.4235347,
      "lon": 12.9971152
    },
    {
      "type": "node",
      "id": 11775913685,
      "lat": 52.4236513,
      "lon": 12.9968716
    },
    {
      "type": "node",
      "id": 12997263259,
      "lat": 52.4236384,
      "lon": 12.9971947
    },
    {
      "type": "node",
      "id": 12997263260,
      "lat": 52.4236397,
      "lon": 12.9971869
    },
    {
      "type": "node",
      "id": 12997263261,
      "lat": 52.4237037,
      "lon": 12.9968848
    },
    {
      "type": "node",
      "id": 768554109,
      "lat": 52.3912462,
      "lon": 13.0663247
    },
    {
      "type": "node",
      "id": 768554116,
      "lat": 52.3913343,
      "lon": 13.0663345
    },
    {
      "type": "node",
      "id": 768554127,
      "lat": 52.3913437,
      "lon": 13.0661096
    },
    {
      "type": "node",
      "id": 768554131,
      "lat": 52.3912555,
      "lon": 13.0660998
    },
    {
      "type": "node",
      "id": 304685916,
      "lat": 52.4055431,
      "lon": 13.0052728
    },
    {
      "type": "node",
      "id": 660310084,
      "lat": 52.4055431,
      "lon": 13.0057573
    },
    {
      "type": "node",
      "id": 1394581332,
      "lat": 52.4055588,
      "lon": 13.0066633
    },
    {
      "type": "node",
      "id": 1394581333,
      "lat": 52.4055435,
      "lon": 13.0060847
    },
    {
      "type": "node",
      "id": 1420360962,
      "lat": 52.4055321,
      "lon": 13.0029023
    },
    {
      "type": "node",
      "id": 1420360963,
      "lat": 52.4055445,
      "lon": 13.0055807
    },
    {
      "type": "node",
      "id": 3057872787,
      "lat": 52.4055582,
      "lon": 13.0067431
    },
    {
      "type": "node",
      "id": 3057872791,
      "lat": 52.4055627,
      "lon": 13.0060846
    },
    {
      "type": "node",
      "id": 3148127526,
      "lat": 52.4055431,
      "lon": 13.0057712
    },
    {
      "type": "node",
      "id": 3157760738,
      "lat": 52.4055583,
      "lon": 13.006844
    },
    {
      "type": "node",
      "id": 3158055810,
      "lat": 52.4055418,
      "lon": 13.0049949
    },
    {
      "type": "node",
      "id": 3158055814,
      "lat": 52.4055314,
      "lon": 13.0026976
    },
    {
      "type": "node",
      "id": 58505093,
      "lat": 52.4087701,
      "lon": 13.007479
    },
    {
      "type": "node",
      "id": 58505098,
      "lat": 52.4083179,
      "lon": 13.0078362
    },
    {
      "type": "node",
      "id": 1772625533,
      "lat": 52.4070207,
      "lon": 13.0081148
    },
    {
      "type": "node",
      "id": 1772631082,
      "lat": 52.4068954,
      "lon": 13.0071612
    },
    {
      "type": "node",
      "id": 3157760735,
      "lat": 52.4068974,
      "lon": 13.0074326
    },
    {
      "type": "node",
      "id": 3157760740,
      "lat": 52.4059409,
      "lon": 13.0068378
    },
    {
      "type": "node",
      "id": 3157760743,
      "lat": 52.4061738,
      "lon": 13.0068341
    },
    {
      "type": "node",
      "id": 3157760745,
      "lat": 52.4065062,
      "lon": 13.0068661
    },
    {
      "type": "node",
      "id": 3158589440,
      "lat": 52.4084496,
      "lon": 13.0078052
    },
    {
      "type": "node",
      "id": 3158589441,
      "lat": 52.4084381,
      "lon": 13.0076924
    },
    {
      "type": "node",
      "id": 3158589478,
      "lat": 52.4070215,
      "lon": 13.007437
    },
    {
      "type": "node",
      "id": 3158633582,
      "lat": 52.4099833,
      "lon": 13.0066992
    },
    {
      "type": "node",
      "id": 3158633583,
      "lat": 52.4114972,
      "lon": 13.0055388
    },
    {
      "type": "node",
      "id": 3158633692,
      "lat": 52.4089465,
      "lon": 13.0073656
    },
    {
      "type": "node",
      "id": 3161409518,
      "lat": 52.4066462,
      "lon": 13.0070753
    },
    {
      "type": "node",
      "id": 3161409520,
      "lat": 52.4065005,
      "lon": 13.0070627
    },
    {
      "type": "node",
      "id": 3459576711,
      "lat": 52.4066562,
      "lon": 13.0071515
    },
    {
      "type": "node",
      "id": 442722586,
      "lat": 52.4138309,
      "lon": 13.027947
    },
    {
      "type": "node",
      "id": 442722587,
      "lat": 52.4138912,
      "lon": 13.0277663
    },
    {
      "type": "node",
      "id": 442722588,
      "lat": 52.4140407,
      "lon": 13.0278248
    },
    {
      "type": "node",
      "id": 442722589,
      "lat": 52.4139596,
      "lon": 13.0280573
    },
    {
      "type": "node",
      "id": 627942167,
      "lat": 52.4139711,
      "lon": 13.0277689
    },
    {
      "type": "node",
      "id": 627942168,
      "lat": 52.4139976,
      "lon": 13.0277806
    },
    {
      "type": "node",
      "id": 627942170,
      "lat": 52.4139091,
      "lon": 13.0280109
    },
    {
      "type": "node",
      "id": 627942172,
      "lat": 52.4138703,
      "lon": 13.0279776
    },
    {
      "type": "node",
      "id": 627942174,
      "lat": 52.4138594,
      "lon": 13.0280148
    },
    {
      "type": "node",
      "id": 627942176,
      "lat": 52.4138963,
      "lon": 13.0280458
    },
    {
      "type": "node",
      "id": 313005441,
      "lat": 52.3944992,
      "lon": 13.0556081
    },
    {
      "type": "node",
      "id": 313005442,
      "lat": 52.3946191,
      "lon": 13.0556492
    },
    {
      "type": "node",
      "id": 313009693,
      "lat": 52.3944932,
      "lon": 13.0556549
    },
    {
      "type": "node",
      "id": 313009695,
      "lat": 52.3944656,
      "lon": 13.0558715
    },
    {
      "type": "node",
      "id": 3768974814,
      "lat": 52.3945932,
      "lon": 13.0558594
    },
    {
      "type": "node",
      "id": 4297447949,
      "lat": 52.3944484,
      "lon": 13.0560063
    },
    {
      "type": "node",
      "id": 5015175196,
      "lat": 52.39457,
      "lon": 13.056048
    },
    {
      "type": "node",
      "id": 353329449,
      "lat": 52.4017274,
      "lon": 13.069583
    },
    {
      "type": "node",
      "id": 353329451,
      "lat": 52.401666,
      "lon": 13.0697444
    },
    {
      "type": "node",
      "id": 353329452,
      "lat": 52.4012515,
      "lon": 13.0693113
    },
    {
      "type": "node",
      "id": 353329453,
      "lat": 52.4010713,
      "lon": 13.0697857
    },
    {
      "type": "node",
      "id": 353329454,
      "lat": 52.4009509,
      "lon": 13.0696615
    },
    {
      "type": "node",
      "id": 353329457,
      "lat": 52.4011461,
      "lon": 13.0691921
    },
    {
      "type": "node",
      "id": 353329462,
      "lat": 52.4011318,
      "lon": 13.0691766
    },
    {
      "type": "node",
      "id": 353329464,
      "lat": 52.4011563,
      "lon": 13.0691123
    },
    {
      "type": "node",
      "id": 353329466,
      "lat": 52.4011915,
      "lon": 13.0690238
    },
    {
      "type": "node",
      "id": 566647780,
      "lat": 52.4007638,
      "lon": 13.0704134
    },
    {
      "type": "node",
      "id": 566647795,
      "lat": 52.4005128,
      "lon": 13.0704552
    },
    {
      "type": "node",
      "id": 566772306,
      "lat": 52.4004054,
      "lon": 13.070354
    },
    {
      "type": "node",
      "id": 566772310,
      "lat": 52.4001139,
      "lon": 13.0703903
    },
    {
      "type": "node",
      "id": 566772319,
      "lat": 52.4001297,
      "lon": 13.0713043
    },
    {
      "type": "node",
      "id": 566772323,
      "lat": 52.400083,
      "lon": 13.0713212
    },
    {
      "type": "node",
      "id": 566772328,
      "lat": 52.3999381,
      "lon": 13.070132
    },
    {
      "type": "node",
      "id": 566805695,
      "lat": 52.4003859,
      "lon": 13.0700932
    },
    {
      "type": "node",
      "id": 2045879455,
      "lat": 52.400409,
      "lon": 13.0718439
    },
    {
      "type": "node",
      "id": 2045879457,
      "lat": 52.400421,
      "lon": 13.071949
    },
    {
      "type": "node",
      "id": 2045879459,
      "lat": 52.4002124,
      "lon": 13.0720126
    },
    {
      "type": "node",
      "id": 2045879461,
      "lat": 52.4002005,
      "lon": 13.0719076
    },
    {
      "type": "node",
      "id": 2923871693,
      "lat": 52.4005034,
      "lon": 13.0727235
    },
    {
      "type": "node",
      "id": 2929584555,
      "lat": 52.400188,
      "lon": 13.0708409
    },
    {
      "type": "node",
      "id": 2929585668,
      "lat": 52.4001231,
      "lon": 13.0704547
    },
    {
      "type": "node",
      "id": 2929585669,
      "lat": 52.400167,
      "lon": 13.0706525
    },
    {
      "type": "node",
      "id": 2929585670,
      "lat": 52.4001885,
      "lon": 13.0706447
    },
    {
      "type": "node",
      "id": 2929585671,
      "lat": 52.4002102,
      "lon": 13.0708347
    },
    {
      "type": "node",
      "id": 2929586130,
      "lat": 52.4001423,
      "lon": 13.0704506
    },
    {
      "type": "node",
      "id": 3020857247,
      "lat": 52.4005753,
      "lon": 13.0722926
    },
    {
      "type": "node",
      "id": 3020857249,
      "lat": 52.400829,
      "lon": 13.0723772
    },
    {
      "type": "node",
      "id": 3024188473,
      "lat": 52.4002992,
      "lon": 13.0705892
    },
    {
      "type": "node",
      "id": 3024188474,
      "lat": 52.4002998,
      "lon": 13.0706113
    },
    {
      "type": "node",
      "id": 3024188475,
      "lat": 52.4003606,
      "lon": 13.0705257
    },
    {
      "type": "node",
      "id": 3024188476,
      "lat": 52.4003623,
      "lon": 13.0705885
    },
    {
      "type": "node",
      "id": 3242756506,
      "lat": 52.40009,
      "lon": 13.0713858
    },
    {
      "type": "node",
      "id": 3242756507,
      "lat": 52.4003569,
      "lon": 13.0703601
    },
    {
      "type": "node",
      "id": 3242756508,
      "lat": 52.4003053,
      "lon": 13.0703677
    },
    {
      "type": "node",
      "id": 3348290418,
      "lat": 52.4011015,
      "lon": 13.0693034
    },
    {
      "type": "node",
      "id": 3348290419,
      "lat": 52.4010935,
      "lon": 13.069294
    },
    {
      "type": "node",
      "id": 3381630369,
      "lat": 52.4011338,
      "lon": 13.0692229
    },
    {
      "type": "node",
      "id": 3381630374,
      "lat": 52.4010469,
      "lon": 13.0697605
    },
    {
      "type": "node",
      "id": 3619751813,
      "lat": 52.4000535,
      "lon": 13.0713975
    },
    {
      "type": "node",
      "id": 3619751836,
      "lat": 52.4001659,
      "lon": 13.0720303
    },
    {
      "type": "node",
      "id": 3619751837,
      "lat": 52.4004669,
      "lon": 13.0720857
    },
    {
      "type": "node",
      "id": 3619751843,
      "lat": 52.4005478,
      "lon": 13.0722763
    },
    {
      "type": "node",
      "id": 3619751844,
      "lat": 52.4005463,
      "lon": 13.072768
    },
    {
      "type": "node",
      "id": 3619751845,
      "lat": 52.400645,
      "lon": 13.0728259
    },
    {
      "type": "node",
      "id": 3619751846,
      "lat": 52.4005309,
      "lon": 13.0722803
    },
    {
      "type": "node",
      "id": 3619751848,
      "lat": 52.4006956,
      "lon": 13.072879
    },
    {
      "type": "node",
      "id": 3619751849,
      "lat": 52.40077,
      "lon": 13.0727423
    },
    {
      "type": "node",
      "id": 3619751850,
      "lat": 52.4007906,
      "lon": 13.0725981
    },
    {
      "type": "node",
      "id": 3619751851,
      "lat": 52.4008358,
      "lon": 13.072497
    },
    {
      "type": "node",
      "id": 3619751852,
      "lat": 52.4008823,
      "lon": 13.0724297
    },
    {
      "type": "node",
      "id": 4571485557,
      "lat": 52.4003166,
      "lon": 13.0705879
    },
    {
      "type": "node",
      "id": 4571485558,
      "lat": 52.400315,
      "lon": 13.070529
    },
    {
      "type": "node",
      "id": 4571485559,
      "lat": 52.4003424,
      "lon": 13.0706083
    },
    {
      "type": "node",
      "id": 4571485560,
      "lat": 52.4003419,
      "lon": 13.0705899
    },
    {
      "type": "node",
      "id": 4571485561,
      "lat": 52.4003614,
      "lon": 13.0704891
    },
    {
      "type": "node",
      "id": 4571485562,
      "lat": 52.4003107,
      "lon": 13.0704944
    },
    {
      "type": "node",
      "id": 5058851614,
      "lat": 52.4004142,
      "lon": 13.0704716
    },
    {
      "type": "node",
      "id": 5745872985,
      "lat": 52.4004993,
      "lon": 13.0728104
    },
    {
      "type": "node",
      "id": 5745872986,
      "lat": 52.4004842,
      "lon": 13.0731413
    },
    {
      "type": "node",
      "id": 5745872987,
      "lat": 52.4004951,
      "lon": 13.0729189
    },
    {
      "type": "node",
      "id": 6580397730,
      "lat": 52.4006597,
      "lon": 13.0713057
    },
    {
      "type": "node",
      "id": 7203720915,
      "lat": 52.4001553,
      "lon": 13.0718738
    },
    {
      "type": "node",
      "id": 7203720916,
      "lat": 52.4004771,
      "lon": 13.071771
    },
    {
      "type": "node",
      "id": 7203720917,
      "lat": 52.4004298,
      "lon": 13.071373
    },
    {
      "type": "node",
      "id": 7203720918,
      "lat": 52.400108,
      "lon": 13.0714758
    },
    {
      "type": "node",
      "id": 7203720919,
      "lat": 52.4006139,
      "lon": 13.0723982
    },
    {
      "type": "node",
      "id": 7203720920,
      "lat": 52.4005779,
      "lon": 13.0727174
    },
    {
      "type": "node",
      "id": 7203720921,
      "lat": 52.4006858,
      "lon": 13.0727501
    },
    {
      "type": "node",
      "id": 7203720922,
      "lat": 52.4007218,
      "lon": 13.0724309
    },
    {
      "type": "node",
      "id": 7203720932,
      "lat": 52.4002178,
      "lon": 13.0713614
    },
    {
      "type": "node",
      "id": 7203720933,
      "lat": 52.4005742,
      "lon": 13.0722613
    },
    {
      "type": "node",
      "id": 7203720934,
      "lat": 52.4001377,
      "lon": 13.0713701
    },
    {
      "type": "node",
      "id": 7203720935,
      "lat": 52.4002477,
      "lon": 13.071333
    },
    {
      "type": "node",
      "id": 7203720936,
      "lat": 52.4001418,
      "lon": 13.0714041
    },
    {
      "type": "node",
      "id": 7203720937,
      "lat": 52.400252,
      "lon": 13.0713684
    },
    {
      "type": "node",
      "id": 7203720938,
      "lat": 52.4002399,
      "lon": 13.0712686
    },
    {
      "type": "node",
      "id": 7203720939,
      "lat": 52.4004799,
      "lon": 13.0713134
    },
    {
      "type": "node",
      "id": 7203720940,
      "lat": 52.4004485,
      "lon": 13.070536
    },
    {
      "type": "node",
      "id": 7203720941,
      "lat": 52.4005264,
      "lon": 13.0722258
    },
    {
      "type": "node",
      "id": 7203720942,
      "lat": 52.400828,
      "lon": 13.0723484
    },
    {
      "type": "node",
      "id": 7203720943,
      "lat": 52.4005735,
      "lon": 13.0722406
    },
    {
      "type": "node",
      "id": 7203720944,
      "lat": 52.4005606,
      "lon": 13.0722405
    },
    {
      "type": "node",
      "id": 7203720945,
      "lat": 52.4005623,
      "lon": 13.0723169
    },
    {
      "type": "node",
      "id": 7203720946,
      "lat": 52.4008317,
      "lon": 13.072415
    },
    {
      "type": "node",
      "id": 9391681471,
      "lat": 52.4005194,
      "lon": 13.0727
    },
    {
      "type": "node",
      "id": 9391681472,
      "lat": 52.4005273,
      "lon": 13.0725469
    },
    {
      "type": "node",
      "id": 9391681473,
      "lat": 52.4007322,
      "lon": 13.0728188
    },
    {
      "type": "node",
      "id": 316962153,
      "lat": 52.3975031,
      "lon": 13.0934306
    },
    {
      "type": "node",
      "id": 674166048,
      "lat": 52.3974074,
      "lon": 13.0933095
    },
    {
      "type": "node",
      "id": 674166050,
      "lat": 52.3974633,
      "lon": 13.09329
    },
    {
      "type": "node",
      "id": 674166066,
      "lat": 52.397382,
      "lon": 13.0933868
    },
    {
      "type": "node",
      "id": 674166070,
      "lat": 52.397477,
      "lon": 13.0934903
    },
    {
      "type": "node",
      "id": 674166072,
      "lat": 52.3975276,
      "lon": 13.0934585
    },
    {
      "type": "node",
      "id": 674166074,
      "lat": 52.3975574,
      "lon": 13.0933836
    },
    {
      "type": "node",
      "id": 674166076,
      "lat": 52.3974468,
      "lon": 13.0933427
    },
    {
      "type": "node",
      "id": 2440983212,
      "lat": 52.4326718,
      "lon": 13.100773
    },
    {
      "type": "node",
      "id": 2440983331,
      "lat": 52.4326346,
      "lon": 13.1008809
    },
    {
      "type": "node",
      "id": 2440983523,
      "lat": 52.4325472,
      "lon": 13.1007998
    },
    {
      "type": "node",
      "id": 2440983527,
      "lat": 52.4325845,
      "lon": 13.1006919
    },
    {
      "type": "node",
      "id": 2245028639,
      "lat": 52.3643784,
      "lon": 13.1270909
    },
    {
      "type": "node",
      "id": 2245028655,
      "lat": 52.364421,
      "lon": 13.1273425
    },
    {
      "type": "node",
      "id": 2245028672,
      "lat": 52.3644798,
      "lon": 13.1270449
    },
    {
      "type": "node",
      "id": 2245028715,
      "lat": 52.3645224,
      "lon": 13.1272965
    },
    {
      "type": "node",
      "id": 5664730323,
      "lat": 52.3772279,
      "lon": 13.1107905
    },
    {
      "type": "node",
      "id": 5664730324,
      "lat": 52.3772834,
      "lon": 13.1105952
    },
    {
      "type": "node",
      "id": 5664730325,
      "lat": 52.3769711,
      "lon": 13.110357
    },
    {
      "type": "node",
      "id": 5664730326,
      "lat": 52.37735,
      "lon": 13.1108836
    },
    {
      "type": "node",
      "id": 5664730327,
      "lat": 52.3774642,
      "lon": 13.1104819
    },
    {
      "type": "node",
      "id": 5664730328,
      "lat": 52.3770298,
      "lon": 13.1101505
    },
    {
      "type": "node",
      "id": 1133533895,
      "lat": 52.3826836,
      "lon": 13.1448655
    },
    {
      "type": "node",
      "id": 1133533906,
      "lat": 52.3827129,
      "lon": 13.1441415
    },
    {
      "type": "node",
      "id": 1133533937,
      "lat": 52.3828841,
      "lon": 13.144701
    },
    {
      "type": "node",
      "id": 1133533974,
      "lat": 52.3825128,
      "lon": 13.1443063
    },
    {
      "type": "node",
      "id": 5114616552,
      "lat": 52.3664875,
      "lon": 13.2053411
    },
    {
      "type": "node",
      "id": 5114616549,
      "lat": 52.3669363,
      "lon": 13.2048288
    },
    {
      "type": "node",
      "id": 7462052724,
      "lat": 52.3665956,
      "lon": 13.2046866
    },
    {
      "type": "node",
      "id": 7462052725,
      "lat": 52.3668254,
      "lon": 13.2054746
    },
    {
      "type": "node",
      "id": 452585197,
      "lat": 52.4290771,
      "lon": 13.1847966
    },
    {
      "type": "node",
      "id": 639127214,
      "lat": 52.4295893,
      "lon": 13.1848098
    },
    {
      "type": "node",
      "id": 639127215,
      "lat": 52.4297568,
      "lon": 13.1848349
    },
    {
      "type": "node",
      "id": 3228996679,
      "lat": 52.4293213,
      "lon": 13.1847804
    },
    {
      "type": "node",
      "id": 3909664934,
      "lat": 52.4290703,
      "lon": 13.184762
    },
    {
      "type": "node",
      "id": 3909664937,
      "lat": 52.4290767,
      "lon": 13.1848006
    },
    {
      "type": "node",
      "id": 3909665644,
      "lat": 52.4293409,
      "lon": 13.1836928
    },
    {
      "type": "node",
      "id": 3909665711,
      "lat": 52.4295841,
      "lon": 13.1837859
    },
    {
      "type": "node",
      "id": 3909665714,
      "lat": 52.4295862,
      "lon": 13.1837365
    },
    {
      "type": "node",
      "id": 3909665785,
      "lat": 52.429708,
      "lon": 13.1837968
    },
    {
      "type": "node",
      "id": 3909665787,
      "lat": 52.4297122,
      "lon": 13.183728
    },
    {
      "type": "node",
      "id": 3909665800,
      "lat": 52.4297536,
      "lon": 13.183733
    },
    {
      "type": "node",
      "id": 3909665803,
      "lat": 52.4297686,
      "lon": 13.1846206
    },
    {
      "type": "node",
      "id": 3909665804,
      "lat": 52.4297725,
      "lon": 13.1833996
    },
    {
      "type": "node",
      "id": 3909665806,
      "lat": 52.4297798,
      "lon": 13.1834006
    },
    {
      "type": "node",
      "id": 3909665807,
      "lat": 52.4297853,
      "lon": 13.1829355
    },
    {
      "type": "node",
      "id": 3909665808,
      "lat": 52.4297874,
      "lon": 13.1828866
    },
    {
      "type": "node",
      "id": 3909665811,
      "lat": 52.4298052,
      "lon": 13.1839966
    },
    {
      "type": "node",
      "id": 3909665813,
      "lat": 52.4298096,
      "lon": 13.1829415
    },
    {
      "type": "node",
      "id": 3909665814,
      "lat": 52.4298102,
      "lon": 13.1839098
    },
    {
      "type": "node",
      "id": 3909665818,
      "lat": 52.4298173,
      "lon": 13.1837854
    },
    {
      "type": "node",
      "id": 3909665824,
      "lat": 52.4298327,
      "lon": 13.1835196
    },
    {
      "type": "node",
      "id": 3909665829,
      "lat": 52.4298548,
      "lon": 13.1831349
    },
    {
      "type": "node",
      "id": 3909665839,
      "lat": 52.4298659,
      "lon": 13.182953
    },
    {
      "type": "node",
      "id": 296474447,
      "lat": 52.4311484,
      "lon": 13.1952022
    },
    {
      "type": "node",
      "id": 784396543,
      "lat": 52.4315905,
      "lon": 13.1945768
    },
    {
      "type": "node",
      "id": 6819020667,
      "lat": 52.4312627,
      "lon": 13.1949269
    },
    {
      "type": "node",
      "id": 6819020668,
      "lat": 52.4311408,
      "lon": 13.1953798
    },
    {
      "type": "node",
      "id": 6819020669,
      "lat": 52.4311346,
      "lon": 13.1954782
    },
    {
      "type": "node",
      "id": 6819020670,
      "lat": 52.4315882,
      "lon": 13.1955517
    },
    {
      "type": "node",
      "id": 6819020671,
      "lat": 52.4316914,
      "lon": 13.1955243
    },
    {
      "type": "node",
      "id": 6819020672,
      "lat": 52.4319341,
      "lon": 13.1951214
    },
    {
      "type": "node",
      "id": 6819020674,
      "lat": 52.4319794,
      "lon": 13.1950327
    },
    {
      "type": "node",
      "id": 7723532778,
      "lat": 52.4313759,
      "lon": 13.1947197
    },
    {
      "type": "node",
      "id": 7723532780,
      "lat": 52.4314551,
      "lon": 13.1946423
    },
    {
      "type": "node",
      "id": 7723532784,
      "lat": 52.4313174,
      "lon": 13.1948169
    },
    {
      "type": "node",
      "id": 7935481645,
      "lat": 52.4317881,
      "lon": 13.1948
    },
    {
      "type": "node",
      "id": 11242137838,
      "lat": 52.4317951,
      "lon": 13.195374
    },
    {
      "type": "node",
      "id": 6291362790,
      "lat": 52.3804407,
      "lon": 13.213259
    },
    {
      "type": "node",
      "id": 6291362791,
      "lat": 52.3809634,
      "lon": 13.2127927
    },
    {
      "type": "node",
      "id": 6291362795,
      "lat": 52.3808562,
      "lon": 13.2124663
    },
    {
      "type": "node",
      "id": 6291362796,
      "lat": 52.3803585,
      "lon": 13.2130039
    },
    {
      "type": "node",
      "id": 12920915997,
      "lat": 52.3806064,
      "lon": 13.2126901
    },
    {
      "type": "node",
      "id": 12920915998,
      "lat": 52.3806279,
      "lon": 13.2127626
    },
    {
      "type": "node",
      "id": 12382577744,
      "lat": 52.3556931,
      "lon": 13.3078272
    },
    {
      "type": "node",
      "id": 12382577747,
      "lat": 52.3553237,
      "lon": 13.3084467
    },
    {
      "type": "node",
      "id": 12382577748,
      "lat": 52.3553502,
      "lon": 13.3084888
    },
    {
      "type": "node",
      "id": 12382577749,
      "lat": 52.3556524,
      "lon": 13.308612
    },
    {
      "type": "node",
      "id": 12382577750,
      "lat": 52.3554765,
      "lon": 13.307718
    },
    {
      "type": "node",
      "id": 12382577751,
      "lat": 52.3554437,
      "lon": 13.3077579
    },
    {
      "type": "node",
      "id": 12382577752,
      "lat": 52.3554184,
      "lon": 13.3078332
    },
    {
      "type": "node",
      "id": 1561067724,
      "lat": 52.4123768,
      "lon": 13.2274225
    },
    {
      "type": "node",
      "id": 1561067729,
      "lat": 52.4123798,
      "lon": 13.227461
    },
    {
      "type": "node",
      "id": 1561067732,
      "lat": 52.4122639,
      "lon": 13.2272895
    },
    {
      "type": "node",
      "id": 1561067735,
      "lat": 52.412276,
      "lon": 13.2274437
    },
    {
      "type": "node",
      "id": 1561067952,
      "lat": 52.4122617,
      "lon": 13.2274472
    },
    {
      "type": "node",
      "id": 1561067954,
      "lat": 52.4122766,
      "lon": 13.2276355
    },
    {
      "type": "node",
      "id": 1561067958,
      "lat": 52.4123916,
      "lon": 13.227611
    },
    {
      "type": "node",
      "id": 2406744381,
      "lat": 52.4123762,
      "lon": 13.2276384
    },
    {
      "type": "node",
      "id": 2406744384,
      "lat": 52.4123853,
      "lon": 13.2277593
    },
    {
      "type": "node",
      "id": 2406744385,
      "lat": 52.4123943,
      "lon": 13.2277575
    },
    {
      "type": "node",
      "id": 2406744387,
      "lat": 52.4123973,
      "lon": 13.2277968
    },
    {
      "type": "node",
      "id": 2406744390,
      "lat": 52.4124181,
      "lon": 13.22812
    },
    {
      "type": "node",
      "id": 6966255065,
      "lat": 52.412331,
      "lon": 13.2282973
    },
    {
      "type": "node",
      "id": 6966255066,
      "lat": 52.4122713,
      "lon": 13.2283077
    },
    {
      "type": "node",
      "id": 6966255067,
      "lat": 52.4122622,
      "lon": 13.2281678
    },
    {
      "type": "node",
      "id": 6966255068,
      "lat": 52.412322,
      "lon": 13.2281575
    },
    {
      "type": "node",
      "id": 6966255069,
      "lat": 52.4123202,
      "lon": 13.2281433
    },
    {
      "type": "node",
      "id": 6966255070,
      "lat": 52.4122593,
      "lon": 13.2281573
    },
    {
      "type": "node",
      "id": 6966255071,
      "lat": 52.4122446,
      "lon": 13.2279854
    },
    {
      "type": "node",
      "id": 6966255072,
      "lat": 52.4123055,
      "lon": 13.2279714
    },
    {
      "type": "node",
      "id": 7075672286,
      "lat": 52.4121773,
      "lon": 13.2271782
    },
    {
      "type": "node",
      "id": 7075672288,
      "lat": 52.4122822,
      "lon": 13.2284107
    },
    {
      "type": "node",
      "id": 1561067721,
      "lat": 52.4124977,
      "lon": 13.2274362
    },
    {
      "type": "node",
      "id": 1561067726,
      "lat": 52.4124826,
      "lon": 13.2272435
    },
    {
      "type": "node",
      "id": 2406744392,
      "lat": 52.4124352,
      "lon": 13.2283854
    },
    {
      "type": "node",
      "id": 2406744393,
      "lat": 52.4124822,
      "lon": 13.2276169
    },
    {
      "type": "node",
      "id": 2406744394,
      "lat": 52.41249,
      "lon": 13.227778
    },
    {
      "type": "node",
      "id": 2406744395,
      "lat": 52.4124943,
      "lon": 13.2277772
    },
    {
      "type": "node",
      "id": 2406744399,
      "lat": 52.4125126,
      "lon": 13.2281036
    },
    {
      "type": "node",
      "id": 2406744400,
      "lat": 52.412515,
      "lon": 13.2281402
    },
    {
      "type": "node",
      "id": 2406744401,
      "lat": 52.4125277,
      "lon": 13.228138
    },
    {
      "type": "node",
      "id": 2406744405,
      "lat": 52.4125424,
      "lon": 13.2283668
    },
    {
      "type": "node",
      "id": 7075672287,
      "lat": 52.4125231,
      "lon": 13.2271121
    },
    {
      "type": "node",
      "id": 7075672290,
      "lat": 52.412563,
      "lon": 13.2276378
    },
    {
      "type": "node",
      "id": 7075672291,
      "lat": 52.412485,
      "lon": 13.2276543
    },
    {
      "type": "node",
      "id": 308190775,
      "lat": 52.3953908,
      "lon": 13.242159
    },
    {
      "type": "node",
      "id": 2956145600,
      "lat": 52.3960782,
      "lon": 13.2414352
    },
    {
      "type": "node",
      "id": 3474758774,
      "lat": 52.3950531,
      "lon": 13.2420465
    },
    {
      "type": "node",
      "id": 3474758961,
      "lat": 52.3954102,
      "lon": 13.240781
    },
    {
      "type": "node",
      "id": 3474759000,
      "lat": 52.3955037,
      "lon": 13.2406796
    },
    {
      "type": "node",
      "id": 3474759025,
      "lat": 52.3955604,
      "lon": 13.241153
    },
    {
      "type": "node",
      "id": 3474759065,
      "lat": 52.3956539,
      "lon": 13.2410516
    },
    {
      "type": "node",
      "id": 5632324459,
      "lat": 52.395156,
      "lon": 13.2422887
    },
    {
      "type": "node",
      "id": 5632324460,
      "lat": 52.3946626,
      "lon": 13.241142
    },
    {
      "type": "node",
      "id": 5632324461,
      "lat": 52.3952887,
      "lon": 13.2404641
    },
    {
      "type": "node",
      "id": 5632324462,
      "lat": 52.3958121,
      "lon": 13.2408669
    },
    {
      "type": "node",
      "id": 7023443446,
      "lat": 52.3953667,
      "lon": 13.2420969
    },
    {
      "type": "node",
      "id": 3907456333,
      "lat": 52.437112,
      "lon": 13.2644822
    },
    {
      "type": "node",
      "id": 303044385,
      "lat": 52.3953647,
      "lon": 13.27418
    },
    {
      "type": "node",
      "id": 303044386,
      "lat": 52.3953205,
      "lon": 13.2745713
    },
    {
      "type": "node",
      "id": 303044387,
      "lat": 52.3952301,
      "lon": 13.2741391
    },
    {
      "type": "node",
      "id": 303044388,
      "lat": 52.3951858,
      "lon": 13.2745304
    },
    {
      "type": "node",
      "id": 3907456328,
      "lat": 52.4369018,
      "lon": 13.2654986
    },
    {
      "type": "node",
      "id": 3907456363,
      "lat": 52.4376733,
      "lon": 13.2659384
    },
    {
      "type": "node",
      "id": 3907456411,
      "lat": 52.4378946,
      "lon": 13.2649296
    },
    {
      "type": "node",
      "id": 11224624022,
      "lat": 52.4372219,
      "lon": 13.265681
    },
    {
      "type": "node",
      "id": 11224624023,
      "lat": 52.4371654,
      "lon": 13.2656489
    },
    {
      "type": "node",
      "id": 11224629706,
      "lat": 52.4374483,
      "lon": 13.2658101
    },
    {
      "type": "node",
      "id": 11224629707,
      "lat": 52.4375447,
      "lon": 13.2658651
    },
    {
      "type": "node",
      "id": 302219868,
      "lat": 52.4293876,
      "lon": 13.3154963
    },
    {
      "type": "node",
      "id": 302219880,
      "lat": 52.4294141,
      "lon": 13.3157689
    },
    {
      "type": "node",
      "id": 1765955743,
      "lat": 52.4297287,
      "lon": 13.3152541
    },
    {
      "type": "node",
      "id": 5630749205,
      "lat": 52.4295121,
      "lon": 13.3167256
    },
    {
      "type": "node",
      "id": 5630749206,
      "lat": 52.4293723,
      "lon": 13.3153512
    },
    {
      "type": "node",
      "id": 8753675523,
      "lat": 52.4298597,
      "lon": 13.316632
    },
    {
      "type": "node",
      "id": 8753675611,
      "lat": 52.4296356,
      "lon": 13.3152802
    },
    {
      "type": "node",
      "id": 8753675612,
      "lat": 52.4294537,
      "lon": 13.3153278
    },
    {
      "type": "node",
      "id": 634180942,
      "lat": 52.443586,
      "lon": 13.3049298
    },
    {
      "type": "node",
      "id": 634180952,
      "lat": 52.4449438,
      "lon": 13.3078469
    },
    {
      "type": "node",
      "id": 663429342,
      "lat": 52.4433362,
      "lon": 13.3048212
    },
    {
      "type": "node",
      "id": 663429343,
      "lat": 52.4430431,
      "lon": 13.3065332
    },
    {
      "type": "node",
      "id": 663429344,
      "lat": 52.4430258,
      "lon": 13.3066324
    },
    {
      "type": "node",
      "id": 663429345,
      "lat": 52.443247,
      "lon": 13.3067497
    },
    {
      "type": "node",
      "id": 663429346,
      "lat": 52.44327,
      "lon": 13.3068015
    },
    {
      "type": "node",
      "id": 663429347,
      "lat": 52.443295,
      "lon": 13.3070321
    },
    {
      "type": "node",
      "id": 663429348,
      "lat": 52.4433338,
      "lon": 13.307183
    },
    {
      "type": "node",
      "id": 663429349,
      "lat": 52.4433552,
      "lon": 13.3073343
    },
    {
      "type": "node",
      "id": 663429350,
      "lat": 52.4433552,
      "lon": 13.3075634
    },
    {
      "type": "node",
      "id": 663429351,
      "lat": 52.4433466,
      "lon": 13.3076476
    },
    {
      "type": "node",
      "id": 663429352,
      "lat": 52.4440128,
      "lon": 13.3082769
    },
    {
      "type": "node",
      "id": 663429353,
      "lat": 52.444127,
      "lon": 13.3079197
    },
    {
      "type": "node",
      "id": 663429354,
      "lat": 52.4446767,
      "lon": 13.3083573
    },
    {
      "type": "node",
      "id": 1899972434,
      "lat": 52.4447122,
      "lon": 13.3075712
    },
    {
      "type": "node",
      "id": 10216804530,
      "lat": 52.4433153,
      "lon": 13.3071036
    },
    {
      "type": "node",
      "id": 10216804531,
      "lat": 52.4432668,
      "lon": 13.3069571
    },
    {
      "type": "node",
      "id": 10216804532,
      "lat": 52.4432822,
      "lon": 13.3068253
    },
    {
      "type": "node",
      "id": 10216804533,
      "lat": 52.4432344,
      "lon": 13.3068827
    },
    {
      "type": "node",
      "id": 10216804534,
      "lat": 52.4431569,
      "lon": 13.306762
    },
    {
      "type": "node",
      "id": 10216804535,
      "lat": 52.4431904,
      "lon": 13.3068132
    },
    {
      "type": "node",
      "id": 10216804536,
      "lat": 52.4431129,
      "lon": 13.3067088
    },
    {
      "type": "node",
      "id": 10216804537,
      "lat": 52.4430651,
      "lon": 13.306664
    },
    {
      "type": "node",
      "id": 10216805340,
      "lat": 52.4450014,
      "lon": 13.3079867
    },
    {
      "type": "node",
      "id": 10216805341,
      "lat": 52.4433813,
      "lon": 13.307769
    },
    {
      "type": "node",
      "id": 10216805342,
      "lat": 52.4436438,
      "lon": 13.3079827
    },
    {
      "type": "node",
      "id": 10216805343,
      "lat": 52.4433578,
      "lon": 13.3073958
    },
    {
      "type": "node",
      "id": 10216805344,
      "lat": 52.4433462,
      "lon": 13.3072558
    },
    {
      "type": "node",
      "id": 10216805345,
      "lat": 52.4433586,
      "lon": 13.3074532
    },
    {
      "type": "node",
      "id": 377700245,
      "lat": 52.3611538,
      "lon": 13.3294594
    },
    {
      "type": "node",
      "id": 2950758412,
      "lat": 52.3611338,
      "lon": 13.3290809
    },
    {
      "type": "node",
      "id": 2950758434,
      "lat": 52.3612188,
      "lon": 13.3290698
    },
    {
      "type": "node",
      "id": 2950758447,
      "lat": 52.3612366,
      "lon": 13.3294485
    },
    {
      "type": "node",
      "id": 11417120158,
      "lat": 52.3611485,
      "lon": 13.3293518
    },
    {
      "type": "node",
      "id": 11417120159,
      "lat": 52.36114,
      "lon": 13.329353
    },
    {
      "type": "node",
      "id": 11417120160,
      "lat": 52.3611316,
      "lon": 13.3291815
    },
    {
      "type": "node",
      "id": 11417120161,
      "lat": 52.3611387,
      "lon": 13.3291806
    },
    {
      "type": "node",
      "id": 11417120162,
      "lat": 52.3612233,
      "lon": 13.3291611
    },
    {
      "type": "node",
      "id": 11417120163,
      "lat": 52.3612317,
      "lon": 13.32916
    },
    {
      "type": "node",
      "id": 11417120164,
      "lat": 52.3612405,
      "lon": 13.3293415
    },
    {
      "type": "node",
      "id": 11417120165,
      "lat": 52.3612314,
      "lon": 13.3293426
    },
    {
      "type": "node",
      "id": 1327144528,
      "lat": 52.386936,
      "lon": 13.3258021
    },
    {
      "type": "node",
      "id": 3296245467,
      "lat": 52.3870678,
      "lon": 13.3258772
    },
    {
      "type": "node",
      "id": 3296245468,
      "lat": 52.386995,
      "lon": 13.325959
    },
    {
      "type": "node",
      "id": 3296245470,
      "lat": 52.3870072,
      "lon": 13.3257216
    },
    {
      "type": "node",
      "id": 11913567864,
      "lat": 52.3871419,
      "lon": 13.3258862
    },
    {
      "type": "node",
      "id": 11913567875,
      "lat": 52.3868698,
      "lon": 13.3257673
    },
    {
      "type": "node",
      "id": 11913567878,
      "lat": 52.3869787,
      "lon": 13.326041
    },
    {
      "type": "node",
      "id": 11913567901,
      "lat": 52.3870383,
      "lon": 13.3256221
    },
    {
      "type": "node",
      "id": 11913567902,
      "lat": 52.3870191,
      "lon": 13.3256195
    },
    {
      "type": "node",
      "id": 11913567903,
      "lat": 52.3869866,
      "lon": 13.3256408
    },
    {
      "type": "node",
      "id": 11913567904,
      "lat": 52.3868607,
      "lon": 13.3257393
    },
    {
      "type": "node",
      "id": 2180050320,
      "lat": 52.3584896,
      "lon": 13.4074906
    },
    {
      "type": "node",
      "id": 2180050337,
      "lat": 52.3586223,
      "lon": 13.4072872
    },
    {
      "type": "node",
      "id": 2180050342,
      "lat": 52.3586757,
      "lon": 13.4078161
    },
    {
      "type": "node",
      "id": 2180050378,
      "lat": 52.3588084,
      "lon": 13.4076127
    },
    {
      "type": "node",
      "id": 634122677,
      "lat": 52.3926028,
      "lon": 13.4117085
    },
    {
      "type": "node",
      "id": 634122678,
      "lat": 52.3926121,
      "lon": 13.4115956
    },
    {
      "type": "node",
      "id": 634122679,
      "lat": 52.3922662,
      "lon": 13.4115386
    },
    {
      "type": "node",
      "id": 634122680,
      "lat": 52.3922346,
      "lon": 13.4123349
    },
    {
      "type": "node",
      "id": 3675468443,
      "lat": 52.3922555,
      "lon": 13.4118513
    },
    {
      "type": "node",
      "id": 3675535486,
      "lat": 52.3939556,
      "lon": 13.4071236
    },
    {
      "type": "node",
      "id": 6258549872,
      "lat": 52.3941037,
      "lon": 13.4069338
    },
    {
      "type": "node",
      "id": 6258549874,
      "lat": 52.394142,
      "lon": 13.4069331
    },
    {
      "type": "node",
      "id": 10230526213,
      "lat": 52.3939846,
      "lon": 13.4076197
    },
    {
      "type": "node",
      "id": 11642004442,
      "lat": 52.39428,
      "lon": 13.4069255
    },
    {
      "type": "node",
      "id": 11642004443,
      "lat": 52.3942304,
      "lon": 13.4069281
    },
    {
      "type": "node",
      "id": 11642004444,
      "lat": 52.3942806,
      "lon": 13.4069565
    },
    {
      "type": "node",
      "id": 11642004445,
      "lat": 52.394231,
      "lon": 13.406959
    },
    {
      "type": "node",
      "id": 11951434530,
      "lat": 52.3943853,
      "lon": 13.4069191
    },
    {
      "type": "node",
      "id": 11951434531,
      "lat": 52.3940205,
      "lon": 13.4081243
    },
    {
      "type": "node",
      "id": 11951434532,
      "lat": 52.3944051,
      "lon": 13.408097
    },
    {
      "type": "node",
      "id": 634122675,
      "lat": 52.3928259,
      "lon": 13.4123654
    },
    {
      "type": "node",
      "id": 634122676,
      "lat": 52.3928592,
      "lon": 13.4117413
    },
    {
      "type": "node",
      "id": 444822040,
      "lat": 52.4233036,
      "lon": 13.3776648
    },
    {
      "type": "node",
      "id": 444822043,
      "lat": 52.4236159,
      "lon": 13.3779156
    },
    {
      "type": "node",
      "id": 444822053,
      "lat": 52.4236564,
      "lon": 13.3777843
    },
    {
      "type": "node",
      "id": 444822057,
      "lat": 52.423346,
      "lon": 13.3775272
    },
    {
      "type": "node",
      "id": 1041298415,
      "lat": 52.4300164,
      "lon": 13.3798
    },
    {
      "type": "node",
      "id": 2841098812,
      "lat": 52.4299086,
      "lon": 13.3812849
    },
    {
      "type": "node",
      "id": 2841098919,
      "lat": 52.4294812,
      "lon": 13.3811657
    },
    {
      "type": "node",
      "id": 3108260275,
      "lat": 52.4299647,
      "lon": 13.3797908
    },
    {
      "type": "node",
      "id": 4742043180,
      "lat": 52.4295819,
      "lon": 13.3797225
    },
    {
      "type": "node",
      "id": 1372109752,
      "lat": 52.4444495,
      "lon": 13.3810303
    },
    {
      "type": "node",
      "id": 2163395836,
      "lat": 52.4438872,
      "lon": 13.3811219
    },
    {
      "type": "node",
      "id": 2287060379,
      "lat": 52.4437446,
      "lon": 13.3802473
    },
    {
      "type": "node",
      "id": 2287060380,
      "lat": 52.4437597,
      "lon": 13.3804379
    },
    {
      "type": "node",
      "id": 2287060381,
      "lat": 52.4437902,
      "lon": 13.3808201
    },
    {
      "type": "node",
      "id": 2287060382,
      "lat": 52.4438124,
      "lon": 13.3811151
    },
    {
      "type": "node",
      "id": 2287060383,
      "lat": 52.4438246,
      "lon": 13.3811335
    },
    {
      "type": "node",
      "id": 2287060385,
      "lat": 52.4438431,
      "lon": 13.3801975
    },
    {
      "type": "node",
      "id": 2287060390,
      "lat": 52.4438729,
      "lon": 13.3801826
    },
    {
      "type": "node",
      "id": 2287060404,
      "lat": 52.4442195,
      "lon": 13.3800118
    },
    {
      "type": "node",
      "id": 3333931550,
      "lat": 52.4443369,
      "lon": 13.3802888
    },
    {
      "type": "node",
      "id": 3333931556,
      "lat": 52.4443882,
      "lon": 13.3802798
    },
    {
      "type": "node",
      "id": 3333931557,
      "lat": 52.4444232,
      "lon": 13.3806133
    },
    {
      "type": "node",
      "id": 3333931560,
      "lat": 52.4444325,
      "lon": 13.3807604
    },
    {
      "type": "node",
      "id": 3333931561,
      "lat": 52.4444385,
      "lon": 13.3808555
    },
    {
      "type": "node",
      "id": 3333931562,
      "lat": 52.444445,
      "lon": 13.3809588
    },
    {
      "type": "node",
      "id": 5069363222,
      "lat": 52.4443264,
      "lon": 13.3802902
    },
    {
      "type": "node",
      "id": 5263828614,
      "lat": 52.4443201,
      "lon": 13.3802567
    },
    {
      "type": "node",
      "id": 5263828615,
      "lat": 52.4442905,
      "lon": 13.3802739
    },
    {
      "type": "node",
      "id": 11465536138,
      "lat": 52.4442317,
      "lon": 13.3800112
    },
    {
      "type": "node",
      "id": 1977142156,
      "lat": 52.4757177,
      "lon": 12.9885287
    },
    {
      "type": "node",
      "id": 1977142157,
      "lat": 52.4757317,
      "lon": 12.9886127
    },
    {
      "type": "node",
      "id": 1977142158,
      "lat": 52.4757471,
      "lon": 12.9886057
    },
    {
      "type": "node",
      "id": 1977142159,
      "lat": 52.4757526,
      "lon": 12.9886382
    },
    {
      "type": "node",
      "id": 1977142160,
      "lat": 52.4757754,
      "lon": 12.9885028
    },
    {
      "type": "node",
      "id": 1977142162,
      "lat": 52.4757948,
      "lon": 12.9886192
    },
    {
      "type": "node",
      "id": 7580266829,
      "lat": 52.47561,
      "lon": 12.9878999
    },
    {
      "type": "node",
      "id": 7580266830,
      "lat": 52.4755662,
      "lon": 12.9876573
    },
    {
      "type": "node",
      "id": 7580266831,
      "lat": 52.475475,
      "lon": 12.9877017
    },
    {
      "type": "node",
      "id": 7580266832,
      "lat": 52.4755188,
      "lon": 12.9879443
    },
    {
      "type": "node",
      "id": 467779461,
      "lat": 52.5179257,
      "lon": 12.9798802
    },
    {
      "type": "node",
      "id": 1208978221,
      "lat": 52.5177688,
      "lon": 12.9799014
    },
    {
      "type": "node",
      "id": 1208978230,
      "lat": 52.5178992,
      "lon": 12.9802576
    },
    {
      "type": "node",
      "id": 1208978232,
      "lat": 52.5179443,
      "lon": 12.9802515
    },
    {
      "type": "node",
      "id": 1208978233,
      "lat": 52.5177803,
      "lon": 12.9801304
    },
    {
      "type": "node",
      "id": 1208978234,
      "lat": 52.517892,
      "lon": 12.9801153
    },
    {
      "type": "node",
      "id": 1218048257,
      "lat": 52.5421325,
      "lon": 12.9904398
    },
    {
      "type": "node",
      "id": 1218048376,
      "lat": 52.5421801,
      "lon": 12.9902251
    },
    {
      "type": "node",
      "id": 1218048377,
      "lat": 52.542022,
      "lon": 12.9901304
    },
    {
      "type": "node",
      "id": 1218048400,
      "lat": 52.5419744,
      "lon": 12.9903451
    },
    {
      "type": "node",
      "id": 6789674140,
      "lat": 52.5882907,
      "lon": 12.9978241
    },
    {
      "type": "node",
      "id": 6789674144,
      "lat": 52.5881365,
      "lon": 12.9979001
    },
    {
      "type": "node",
      "id": 6789674145,
      "lat": 52.5881029,
      "lon": 12.9978761
    },
    {
      "type": "node",
      "id": 6789674146,
      "lat": 52.5882251,
      "lon": 12.9979635
    },
    {
      "type": "node",
      "id": 6789674147,
      "lat": 52.5882505,
      "lon": 12.9978674
    },
    {
      "type": "node",
      "id": 6789674148,
      "lat": 52.5882747,
      "lon": 12.9978847
    },
    {
      "type": "node",
      "id": 6789674149,
      "lat": 52.5882256,
      "lon": 12.9977776
    },
    {
      "type": "node",
      "id": 6789674150,
      "lat": 52.5882409,
      "lon": 12.9977196
    },
    {
      "type": "node",
      "id": 6789674151,
      "lat": 52.5882373,
      "lon": 12.997717
    },
    {
      "type": "node",
      "id": 6789674152,
      "lat": 52.5882561,
      "lon": 12.9976457
    },
    {
      "type": "node",
      "id": 6789674153,
      "lat": 52.5882605,
      "lon": 12.9976489
    },
    {
      "type": "node",
      "id": 6789674154,
      "lat": 52.5883154,
      "lon": 12.9974408
    },
    {
      "type": "node",
      "id": 6789674155,
      "lat": 52.5882373,
      "lon": 12.9973849
    },
    {
      "type": "node",
      "id": 6789674156,
      "lat": 52.5881826,
      "lon": 12.9975919
    },
    {
      "type": "node",
      "id": 6789674157,
      "lat": 52.5881787,
      "lon": 12.9975891
    },
    {
      "type": "node",
      "id": 3686586721,
      "lat": 52.4672054,
      "lon": 13.0149476
    },
    {
      "type": "node",
      "id": 3686586734,
      "lat": 52.4672697,
      "lon": 13.0150892
    },
    {
      "type": "node",
      "id": 3686586771,
      "lat": 52.4673641,
      "lon": 13.014754
    },
    {
      "type": "node",
      "id": 3686586806,
      "lat": 52.4674286,
      "lon": 13.0148954
    },
    {
      "type": "node",
      "id": 999437150,
      "lat": 52.4453642,
      "lon": 13.0409843
    },
    {
      "type": "node",
      "id": 999437155,
      "lat": 52.4453191,
      "lon": 13.0413238
    },
    {
      "type": "node",
      "id": 999437160,
      "lat": 52.4452123,
      "lon": 13.0412855
    },
    {
      "type": "node",
      "id": 999437163,
      "lat": 52.4452574,
      "lon": 13.0409461
    },
    {
      "type": "node",
      "id": 4487526496,
      "lat": 52.4453335,
      "lon": 13.0412155
    },
    {
      "type": "node",
      "id": 12643784162,
      "lat": 52.4452267,
      "lon": 13.0411772
    },
    {
      "type": "node",
      "id": 4389417443,
      "lat": 52.4546889,
      "lon": 13.1458524
    },
    {
      "type": "node",
      "id": 4389417444,
      "lat": 52.4543679,
      "lon": 13.1455894
    },
    {
      "type": "node",
      "id": 4389417445,
      "lat": 52.4543864,
      "lon": 13.1455259
    },
    {
      "type": "node",
      "id": 4389417446,
      "lat": 52.4545093,
      "lon": 13.1453231
    },
    {
      "type": "node",
      "id": 4975077762,
      "lat": 52.4547939,
      "lon": 13.1448591
    },
    {
      "type": "node",
      "id": 4975083365,
      "lat": 52.4548553,
      "lon": 13.1449592
    },
    {
      "type": "node",
      "id": 4975083366,
      "lat": 52.4550155,
      "lon": 13.1452931
    },
    {
      "type": "node",
      "id": 4975083367,
      "lat": 52.4547092,
      "lon": 13.1457893
    },
    {
      "type": "node",
      "id": 796540792,
      "lat": 52.4737446,
      "lon": 13.1107503
    },
    {
      "type": "node",
      "id": 6000874756,
      "lat": 52.4737332,
      "lon": 13.1102809
    },
    {
      "type": "node",
      "id": 6000874757,
      "lat": 52.4733868,
      "lon": 13.1103158
    },
    {
      "type": "node",
      "id": 6000874758,
      "lat": 52.473426,
      "lon": 13.1108764
    },
    {
      "type": "node",
      "id": 1326048790,
      "lat": 52.4895189,
      "lon": 13.1805118
    },
    {
      "type": "node",
      "id": 4389414273,
      "lat": 52.4901329,
      "lon": 13.1804528
    },
    {
      "type": "node",
      "id": 4389414274,
      "lat": 52.4900895,
      "lon": 13.1808146
    },
    {
      "type": "node",
      "id": 4389414275,
      "lat": 52.4900341,
      "lon": 13.1809767
    },
    {
      "type": "node",
      "id": 4389414276,
      "lat": 52.4898126,
      "lon": 13.1810163
    },
    {
      "type": "node",
      "id": 4389414277,
      "lat": 52.4898018,
      "lon": 13.1808976
    },