Id;name;company_name;m2;gross_max_power;lon;lat;search;Punktgeometrie (als WKT);source;estimated_max_power_mw;estimation_method;facility_type;estimated_annual_energy_mwh
1f9abc0f-9144-11e7-a556-02028ff44134;bitel-bielefeld;BITel;;;8.5635599;52.0085579;Bielefeld Ostwestfalen-Lippe 33605 DE;POINT (8.5635599 52.0085579);cloudscene;4.91;"pending_company_or_global_fallback;global_median_fallback;annual_energy_scaled_to_20.6TWh(factor=2.427)";unknown;32796.66
1f7051a6-9144-11e7-a556-02028ff44134;eunetworks-eunetworks-bielefeld;euNetworks;0.0;;8.5329899;52.0222582;Jahnplatz Bielefeld North Rhine-Westphalia 33602 Germany;POINT (8.5329899 52.0222582);cloudscene;4.91;"pending_company_or_global_fallback;global_median_fallback;annual_energy_scaled_to_20.6TWh(factor=2.427)";unknown;32796.66
1f9a7c72-9144-11e7-a556-02028ff44134;finanz-informatik-nuremberg-2;Finanz Informatik;;;11.01908;49.42668;Nuremberg Bavaria 90449 DE;POINT (11.01908 49.42668);cloudscene;4.91;"pending_company_or_global_fallback;global_median_fallback;annual_energy_scaled_to_20.6TWh(factor=2.427)";unknown;32796.66
1f50b3ab-9144-11e7-a556-02028ff44134;hetzner-online-rz1;Hetzner Online;3000.0;1.08;11.0139777;49.4492498;Nuremberg Bavaria 90431 Germany;POINT (11.0139777 49.4492498);cloudscene;1.08;"reported_gross_max_power;annual_energy_scaled_to_20.6TWh(factor=2.427)";hosting_cloud;7863.74
1f6f1047-9144-11e7-a556-02028ff44134;noris-network-rz-nurnberg-zentrum-nbg4;noris network;0.0;;11.077251870984494;49.45147825719425;Nuremberg Bavaria 90429 Germany;POINT (11.077251870984494 49.45147825719425);cloudscene;26.73;"pending_company_or_global_fallback;company_mean_estimate;annual_energy_scaled_to_20.6TWh(factor=2.427)";hosting_cloud;194627.46
334ae5e0-7bf6-11ed-a9f5-8f4e6a905eb9;noris-network-dc-nuremberg-center-nbg5;noris network;;;11.07721572432359;49.45582822121287;;POINT (11.07721572432359 49.45582822121287);cloudscene;26.73;"pending_company_or_global_fallback;company_mean_estimate;annual_energy_scaled_to_20.6TWh(factor=2.427)";hosting_cloud;194627.46
1f78ad5b-9144-11e7-a556-02028ff44134;mti-nurnberg;MTI;0.0;;11.13086;49.4087;Nurnberg Bavaria 90459 Germany;POINT (11.13086 49.4087);cloudscene;4.91;"pending_company_or_global_fallback;global_median_fallback;annual_energy_scaled_to_20.6TWh(factor=2.427)";unknown;32796.66
1f9bcea7-9144-11e7-a556-02028ff44134;contabo-nuremberg;Contabo;1750.0;;11.17106;49.41401;Nuremberg Bavaria 90475 DE;POINT (11.17106 49.41401);cloudscene;4.25;"density_model:type=hosting_cloud;density_kW_per_m2=1.8;pue=1.35;annual_energy_scaled_to_20.6TWh(factor=2.427)";hosting_cloud;30963.46
1f95fffc-9144-11e7-a556-02028ff44134;atos-furth;Atos;;;10.9646485;49.48255820000001;Furth Bavaria 90766 DE;POINT (10.9646485 49.48255820000001);cloudscene;4.91;"pending_company_or_global_fallback;global_median_fallback;annual_energy_scaled_to_20.6TWh(factor=2.427)";enterprise;29815.15
1f6f09bd-9144-11e7-a556-02028ff44134;noris-network-rz-nurnberg-zentrum-nbg3;noris network;0.0;;11.076462068424222;49.45198720898979;Nuremberg Bavaria 90429 Germany;POINT (11.076462068424222 49.45198720898979);cloudscene;26.73;"pending_company_or_global_fallback;company_mean_estimate;annual_energy_scaled_to_20.6TWh(factor=2.427)";hosting_cloud;194627.46
1f708d96-9144-11e7-a556-02028ff44134;eunetworks-eunetworks-nuremberg;euNetworks;0.0;;11.0330621;49.4594546;Nuremberg Bavaria 90429 Germany;POINT (11.0330621 49.4594546);cloudscene;4.91;"pending_company_or_global_fallback;global_median_fallback;annual_energy_scaled_to_20.6TWh(factor=2.427)";unknown;32796.66
7e088440-157f-11ee-a2ca-07a9e45da7e9;hetzner-online-rz6;Hetzner Online;;;;;;;cloudscene;1.08;"pending_company_or_global_fallback;company_mean_estimate;annual_energy_scaled_to_20.6TWh(factor=2.427)";hosting_cloud;7863.74
e64bd7e0-d1b1-11ed-9943-851e47afdbdc;northc-datacenters-nuremberg;NorthC Data Centers;;;;;;;cloudscene;4.91;"pending_company_or_global_fallback;global_median_fallback;annual_energy_scaled_to_20.6TWh(factor=2.427)";colocation;38759.69
4c8e56a0-157f-11ee-ac93-8f83981cba43;hetzner-online-rz5;Hetzner Online;;;;;;;cloudscene;1.08;"pending_company_or_global_fallback;company_mean_estimate;annual_energy_scaled_to_20.6TWh(factor=2.427)";hosting_cloud;7863.74
1f6f14bf-9144-11e7-a556-02028ff44134;noris-network-rz-nurnberg-sud-nbg6;noris network;11000.0;;11.141285027863196;49.40838374875479;Nuremberg Bavaria 90471 Germany;POINT (11.141285027863196 49.40838374875479);cloudscene;26.73;"density_model:type=hosting_cloud;density_kW_per_m2=1.8;pue=1.35;annual_energy_scaled_to_20.6TWh(factor=2.427)";hosting_cloud;194627.46
1f821232-9144-11e7-a556-02028ff44134;datacenter-carrier-datacenter-carrier;DataCenter Carrier;0.0;;11.0636334;49.4539333;Nuremberg Bavaria 90429 Germany;POINT (11.0636334 49.4539333);cloudscene;4.91;"pending_company_or_global_fallback;global_median_fallback;annual_energy_scaled_to_20.6TWh(factor=2.427)";unknown;32796.66
285aa700-157f-11ee-b06c-87f1be1a0f99;hetzner-online-rz4;Hetzner Online;;;;;;;cloudscene;1.08;"pending_company_or_global_fallback;company_mean_estimate;annual_energy_scaled_to_20.6TWh(factor=2.427)";hosting_cloud;7863.74
1fa0361c-9144-11e7-a556-02028ff44134;publicompserver-de-nuremberg;publicompserver.de;;;11.06364;49.45341;Nuremberg Bavaria 90429 DE;POINT (11.06364 49.45341);cloudscene;4.91;"pending_company_or_global_fallback;global_median_fallback;annual_energy_scaled_to_20.6TWh(factor=2.427)";unknown;32796.66
1f6e453d-9144-11e7-a556-02028ff44134;centurylink-nuremberg;Colt Technology Services;0.0;;11.1829548;49.38943190000001;Nuremberg Bavaria 90475 Germany;POINT (11.1829548 49.38943190000001);cloudscene;4.91;"pending_company_or_global_fallback;company_mean_estimate;annual_energy_scaled_to_20.6TWh(factor=2.427)";colocation;38759.69
1f50a79e-9144-11e7-a556-02028ff44134;core-backbone-datacenter-123;Core Backbone;0.0;;11.0636334;49.4539333;Nuremberg Bavaria 90429 Germany;POINT (11.0636334 49.4539333);cloudscene;4.91;"pending_company_or_global_fallback;global_median_fallback;annual_energy_scaled_to_20.6TWh(factor=2.427)";unknown;32796.66
937df970-fd4f-11ef-a99b-157e3de75dbb;nlighten-nue1;nlighten;;;;;;;cloudscene;4.91;"pending_company_or_global_fallback;global_median_fallback;annual_energy_scaled_to_20.6TWh(factor=2.427)";colocation;38759.69
1f78aba2-9144-11e7-a556-02028ff44134;kpn-cyber-center-nurnberg;KPN;0.0;;11.0636334;49.4539333;Nuremberg Bavaria 90429 Germany;POINT (11.0636334 49.4539333);cloudscene;4.91;"pending_company_or_global_fallback;global_median_fallback;annual_energy_scaled_to_20.6TWh(factor=2.427)";enterprise;29815.15
fb611dc0-157e-11ee-9341-99d1afff375b;hetzner-online-rz3;Hetzner Online;;;;;;;cloudscene;1.08;"pending_company_or_global_fallback;company_mean_estimate;annual_energy_scaled_to_20.6TWh(factor=2.427)";hosting_cloud;7863.74
1f9bcccb-9144-11e7-a556-02028ff44134;ratiokontakt-nuremberg;ratiokontakt;;;10.8661227;49.9167329;Hallstadt Bavaria 96103 DE;POINT (10.8661227 49.9167329);cloudscene;4.91;"pending_company_or_global_fallback;global_median_fallback;annual_energy_scaled_to_20.6TWh(factor=2.427)";unknown;32796.66
1f54ebf5-baed-45f8-b735-78445d69ac57;deutschherrn-karree-nuremberg;Deutschherrn Karree;;;11.0758463;49.457883;Nuremberg  90429 DE;POINT (11.0758463 49.457883);cloudscene;4.91;"pending_company_or_global_fallback;global_median_fallback;annual_energy_scaled_to_20.6TWh(factor=2.427)";unknown;32796.66
1f78b18b-9144-11e7-a556-02028ff44134;m-net-telekommunikations-rz-nurnberg;M-net Telekommunikations;0.0;;11.0612413;49.43717239999999;Nuremberg Bavaria 90441 Germany;POINT (11.0612413 49.43717239999999);cloudscene;4.91;"pending_company_or_global_fallback;global_median_fallback;annual_energy_scaled_to_20.6TWh(factor=2.427)";unknown;32796.66
1f9a7ae2-9144-11e7-a556-02028ff44134;finanz-informatik-nuremberg-1;Finanz Informatik;;;11.04233;49.44661;Nuremberg Bavaria 90431 DE;POINT (11.04233 49.44661);cloudscene;4.91;"pending_company_or_global_fallback;global_median_fallback;annual_energy_scaled_to_20.6TWh(factor=2.427)";unknown;32796.66
f8743510-e7a1-4ec2-8370-431e80fe6e05;hetzner-online-rz2;Hetzner Online;;;11.014143;49.4494116;Nuremberg Bavaria 90431 DE;POINT (11.014143 49.4494116);cloudscene;1.08;"pending_company_or_global_fallback;company_mean_estimate;annual_energy_scaled_to_20.6TWh(factor=2.427)";hosting_cloud;7863.74
bddb73a0-03f2-11ee-a6e9-bb304b1abed0;datev-nuremberg;Datev;;;;;;;cloudscene;4.91;"pending_company_or_global_fallback;global_median_fallback;annual_energy_scaled_to_20.6TWh(factor=2.427)";hosting_cloud;35778.18
f6bdb030-3d3c-11ec-8e15-41199fa48362;1-1-versatel-dusseldorf;1 & 1 Versatel;;;;;;;cloudscene;4.91;"pending_company_or_global_fallback;global_median_fallback;annual_energy_scaled_to_20.6TWh(factor=2.427)";hosting_cloud;35778.18
f5b586e0-0406-11ee-9b5e-515ef2bc2d58;telia-dusseldorf;Telia;;;;;;;cloudscene;4.91;"pending_company_or_global_fallback;global_median_fallback;annual_energy_scaled_to_20.6TWh(factor=2.427)";unknown;32796.66
64b66720-fdd0-11ed-80f6-8db4827740f1;myloc-managed-it-myloc-dusseldorf-4;myLoc managed IT;;;;;;;cloudscene;25.0;"pending_company_or_global_fallback;company_mean_estimate;annual_energy_scaled_to_20.6TWh(factor=2.427)";hosting_cloud;182030.92
1f9abd9a-9144-11e7-a556-02028ff44134;bt-dusseldorf;BT;;;6.80746;51.23132;Dusseldorf North Rhine-Westphalia 40237 DE;POINT (6.80746 51.23132);cloudscene;4.91;"pending_company_or_global_fallback;global_median_fallback;annual_energy_scaled_to_20.6TWh(factor=2.427)";enterprise;29815.15
1fa074d6-9144-11e7-a556-02028ff44134;csl-dusseldorf;CSL;;;6.724889999999999;51.23919;Dusseldorf North Rhine-Westphalia 40549 DE;POINT (6.724889999999999 51.23919);cloudscene;4.91;"pending_company_or_global_fallback;global_median_fallback;annual_energy_scaled_to_20.6TWh(factor=2.427)";unknown;32796.66
1fa02549-9144-11e7-a556-02028ff44134;plusserver-dusseldorf;PlusServer;;;6.865970000000001;51.18875000000001;Dusseldorf North Rhine-Westphalia 40599 DE;POINT (6.865970000000001 51.18875000000001);cloudscene;4.91;"pending_company_or_global_fallback;global_median_fallback;annual_energy_scaled_to_20.6TWh(factor=2.427)";hosting_cloud;35778.18
3e72fe10-5db6-11ef-9ebc-5b86b72f5a7a;nlighten-dus1;nlighten;;;;;;;cloudscene;4.91;"pending_company_or_global_fallback;global_median_fallback;annual_energy_scaled_to_20.6TWh(factor=2.427)";colocation;38759.69
67ae6a07-872e-4309-b185-3640d7ccbb3d;freenet-dusseldorf;Freenet;;;6.7157088;51.2399545;Dusseldorf North Rhine-Westphalia 40549 DE;POINT (6.7157088 51.2399545);cloudscene;4.91;"pending_company_or_global_fallback;global_median_fallback;annual_energy_scaled_to_20.6TWh(factor=2.427)";unknown;32796.66
c14e2dcc-67ca-471f-9758-740c30f27788;bt-dusseldorf-2;BT;;;6.8042846;51.2316729;Dusseldorf  40237 GB;POINT (6.8042846 51.2316729);cloudscene;4.91;"pending_company_or_global_fallback;global_median_fallback;annual_energy_scaled_to_20.6TWh(factor=2.427)";enterprise;29815.15
1f96101e-9144-11e7-a556-02028ff44134;verizon-hilden;Verizon;;;6.90836;51.1713846;Hilden North Rhine-Westphalia 40721 DE;POINT (6.90836 51.1713846);cloudscene;2.4;"pending_company_or_global_fallback;company_mean_estimate;annual_energy_scaled_to_20.6TWh(factor=2.427)";enterprise;14562.47
ff3d46b0-3dc1-11ec-b782-c91b38204245;plusserver-dusseldorf-2;PlusServer;;;;;;;cloudscene;4.91;"pending_company_or_global_fallback;global_median_fallback;annual_energy_scaled_to_20.6TWh(factor=2.427)";hosting_cloud;35778.18
1f706030-9144-11e7-a556-02028ff44134;eunetworks-eunetworks-dusseldorf;euNetworks;0.0;;6.7902489;51.22641729999999;Dusseldorf North Rhine-Westphalia 40211 Germany;POINT (6.7902489 51.22641729999999);cloudscene;4.91;"pending_company_or_global_fallback;global_median_fallback;annual_energy_scaled_to_20.6TWh(factor=2.427)";unknown;32796.66
e62da12f-bd9f-42d7-8808-53a15800e781;myloc-managed-it-myloc-dusseldorf-2;myLoc managed IT;;;6.867769399999999;51.18827049999999;Dusseldorf North Rhine-Westphalia 40599 DE;POINT (6.867769399999999 51.18827049999999);cloudscene;25.0;"pending_company_or_global_fallback;company_mean_estimate;annual_energy_scaled_to_20.6TWh(factor=2.427)";hosting_cloud;182030.92
1c5b43b0-3dc8-11ec-8b62-61fe97dc4b6b;myloc-managed-it-myloc-duesseldorf-3;myLoc managed IT;;;;;;;cloudscene;25.0;"pending_company_or_global_fallback;company_mean_estimate;annual_energy_scaled_to_20.6TWh(factor=2.427)";hosting_cloud;182030.92
ec0748fb-2863-494e-8ae0-a24566dabff2;penta-infra-dus01;Penta Infra;;6.0;6.6946422;51.2450831;Meerbusch North Rhine-Westphalia 40667 DE;POINT (6.6946422 51.2450831);cloudscene;6.0;"reported_gross_max_power;annual_energy_scaled_to_20.6TWh(factor=2.427)";unknown;40046.8
1f93e976-9144-11e7-a556-02028ff44134;itenos-dusseldorf;ITENOS;;;6.79893;51.25902;Dusseldorf North Rhine-Westphalia 40470 DE;POINT (6.79893 51.25902);cloudscene;14.75;"pending_company_or_global_fallback;company_mean_estimate;annual_energy_scaled_to_20.6TWh(factor=2.427)";unknown;98448.39
1f9614e9-9144-11e7-a556-02028ff44134;ibm-meerbusch;IBM;;;6.70034;51.24075;Meerbusch North Rhine-Westphalia 40667 DE;POINT (6.70034 51.24075);cloudscene;4.91;"pending_company_or_global_fallback;global_median_fallback;annual_energy_scaled_to_20.6TWh(factor=2.427)";enterprise;29815.15
1f788737-9144-11e7-a556-02028ff44134;kpn-cyber-center-dusseldorf;KPN;0.0;;6.798929999999999;51.25902;Dusseldorf North Rhein-Westphalia 40470 Germany;POINT (6.798929999999999 51.25902);cloudscene;4.91;"pending_company_or_global_fallback;global_median_fallback;annual_energy_scaled_to_20.6TWh(factor=2.427)";enterprise;29815.15
5761245c-c0e7-4531-b4d8-8930b5d4e55d;interxion-dus-2;Digital Realty;5400.0;2.0;6.866802499999999;51.1876577;Dusseldorf North Rhine-Westphalia 40599 DE;POINT (6.866802499999999 51.1876577);cloudscene;2.0;"reported_gross_max_power;annual_energy_scaled_to_20.6TWh(factor=2.427)";colocation;15776.01
66e35330-7117-11ed-9560-ad4f35cd6189;gcp-dusseldorf;GCP;;;;;;;cloudscene;4.91;"pending_company_or_global_fallback;global_median_fallback;annual_energy_scaled_to_20.6TWh(factor=2.427)";hosting_cloud;35778.18
a4c83e4e-5be7-4d90-b3f0-6635640ed2e9;datacenter-one-dus1;Datacenter One;;;6.9382508;51.1914068;Hilden  40724 DE;POINT (6.9382508 51.1914068);cloudscene;4.91;"pending_company_or_global_fallback;global_median_fallback;annual_energy_scaled_to_20.6TWh(factor=2.427)";unknown;32796.66
1f94ddd6-9144-11e7-a556-02028ff44134;colt-technology-services-dusseldorf;Colt Technology Services;;;6.76729;51.25221;Dusseldorf North Rhine-Westphalia 40474 DE;POINT (6.76729 51.25221);cloudscene;4.91;"pending_company_or_global_fallback;company_mean_estimate;annual_energy_scaled_to_20.6TWh(factor=2.427)";colocation;38759.69
1f960cdd-9144-11e7-a556-02028ff44134;orange-business-services-dusseldorf;Orange Business Services;;;6.7948;51.287;Dusseldorf North Rhine-Westphalia 40472 DE;POINT (6.7948 51.287);cloudscene;4.91;"pending_company_or_global_fallback;global_median_fallback;annual_energy_scaled_to_20.6TWh(factor=2.427)";enterprise;29815.15
1f7013c4-9144-11e7-a556-02028ff44134;myloc-managed-it-myloc-duesseldorf-1;myLoc managed IT;0.0;25.0;6.8174;51.26721000000001;Düsseldorf North Rhein-Westphalia 40472 Germany;POINT (6.8174 51.26721000000001);cloudscene;25.0;"reported_gross_max_power;annual_energy_scaled_to_20.6TWh(factor=2.427)";hosting_cloud;182030.92
1f4c37f7-9144-11e7-a556-02028ff44134;interxion-dus-1;Digital Realty;4500.0;2.3;6.86722;51.18827;Dusseldorf North Rhine-Westphalia 40599 Germany;POINT (6.86722 51.18827);cloudscene;2.3;"reported_gross_max_power;annual_energy_scaled_to_20.6TWh(factor=2.427)";colocation;18142.41
e2ba81fd-467d-43d5-874e-82db4fb62188;financial-management-of-the-state-of-north-rhine-westphalia-dusseldorf;Financial Management of the state of North Rhine-Westphalia;;;6.775683799999999;51.25091399999999;Dusseldorf North Rhine-Westphalia 40476 DE;POINT (6.775683799999999 51.25091399999999);cloudscene;4.91;"pending_company_or_global_fallback;global_median_fallback;annual_energy_scaled_to_20.6TWh(factor=2.427)";unknown;32796.66
1f788597-9144-11e7-a556-02028ff44134;mti-dusseldorf;MTI;0.0;;6.86728;51.18819000000001;Dusseldorf North Rhein-Westphalia 40599 Germany;POINT (6.86728 51.18819000000001);cloudscene;4.91;"pending_company_or_global_fallback;global_median_fallback;annual_energy_scaled_to_20.6TWh(factor=2.427)";unknown;32796.66
1f3efa81-9144-11e7-a556-02028ff44134;equinix-du1;Equinix;5457.0;4.2;6.8070132;51.21981049999999;Dusseldorf North Rhine-Westphalia 40233 Germany;POINT (6.8070132 51.21981049999999);cloudscene;4.2;"reported_gross_max_power;annual_energy_scaled_to_20.6TWh(factor=2.427)";colocation;33129.63
1f960e71-9144-11e7-a556-02028ff44134;ibm-dusseldorf;IBM;;;6.7777826;51.2216543;Dusseldorf North Rhine-Westphalia 40213 DE;POINT (6.7777826 51.2216543);cloudscene;4.91;"pending_company_or_global_fallback;global_median_fallback;annual_energy_scaled_to_20.6TWh(factor=2.427)";enterprise;29815.15
1f7900e3-9144-11e7-a556-02028ff44134;comtrance-dusseldorf;comtrance;0.0;;6.868510000000001;51.18737;Dusseldorf North Rhine-Westphalia 40599 Germany;POINT (6.868510000000001 51.18737);cloudscene;4.91;"pending_company_or_global_fallback;global_median_fallback;annual_energy_scaled_to_20.6TWh(factor=2.427)";unknown;32796.66
5133a215-7a4a-4d62-b4f4-8a48a1bb717a;scaleup-technologies-dusseldorf;ScaleUp Technologies;;;6.8698815;51.1862202;Dusseldorf North Rhine-Westphalia 40599 DE;POINT (6.8698815 51.1862202);cloudscene;4.91;"pending_company_or_global_fallback;global_median_fallback;annual_energy_scaled_to_20.6TWh(factor=2.427)";unknown;32796.66
1f6e03f5-9144-11e7-a556-02028ff44134;centurylink-dusseldorf;Colt Technology Services;6863.0;3.6;6.86728;51.18819000000001;Dusseldorf North Rhine-Westfalia 40599 Germany;POINT (6.86728 51.18819000000001);cloudscene;3.6;"reported_gross_max_power;annual_energy_scaled_to_20.6TWh(factor=2.427)";colocation;28396.82
86d572e0-03f3-11ee-9030-059e7307aad5;finanzverwaltung-des-landes-nordrhein-westfalen-dusseldorf;Finanzverwaltung des Landes Nordrhein-Westfalen;;;;;;;cloudscene;4.91;"pending_company_or_global_fallback;global_median_fallback;annual_energy_scaled_to_20.6TWh(factor=2.427)";unknown;32796.66
e7763766-035f-482c-a39a-ec98d4a665fc;aixit-aix-d1;Aixit;;;6.86722;51.18827;Dusseldorf North Rhine-Westphalia 40599 DE;POINT (6.86722 51.18827);cloudscene;4.91;"pending_company_or_global_fallback;global_median_fallback;annual_energy_scaled_to_20.6TWh(factor=2.427)";unknown;32796.66
1f961328-9144-11e7-a556-02028ff44134;ibm-ratingen;IBM;;;6.82271;51.29956;Ratingen North Rhine-Westphalia 40880 DE;POINT (6.82271 51.29956);cloudscene;4.91;"pending_company_or_global_fallback;global_median_fallback;annual_energy_scaled_to_20.6TWh(factor=2.427)";enterprise;29815.15
06bc0bd0-163b-11ee-8ca9-2b3965976d3e;digital-realty-dus-3;Digital Realty;;;;;;;cloudscene;6.07;"pending_company_or_global_fallback;company_mean_estimate;annual_energy_scaled_to_20.6TWh(factor=2.427)";colocation;47916.05
7ada2a20-3dc8-11ec-9c8f-c34e8e736bb6;myloc-managed-it-myloc-duesseldorf-6;myLoc managed IT;;;;;;;cloudscene;25.0;"pending_company_or_global_fallback;company_mean_estimate;annual_energy_scaled_to_20.6TWh(factor=2.427)";hosting_cloud;182030.92
1f94e768-9144-11e7-a556-02028ff44134;colt-technology-services-hamburg-4;Colt Technology Services;;;10.0389344;53.5510343;Hamburg Hamburg 20537 DE;POINT (10.0389344 53.5510343);cloudscene;4.91;"pending_company_or_global_fallback;company_mean_estimate;annual_energy_scaled_to_20.6TWh(factor=2.427)";colocation;38759.69
1f76edc0-9144-11e7-a556-02028ff44134;iphh-internet-port-hamburg-hamburg;IPHH Internet Port Hamburg;0.0;1.08;10.04809;53.5499;Hamburg Hamburg 20537 Germany;POINT (10.04809 53.5499);cloudscene;1.08;"reported_gross_max_power;annual_energy_scaled_to_20.6TWh(factor=2.427)";unknown;7208.42
1f78a36b-9144-11e7-a556-02028ff44134;mti-hamburg;MTI;0.0;;10.04809;53.5499;Hamburg Hamburg 20537 Germany;POINT (10.04809 53.5499);cloudscene;4.91;"pending_company_or_global_fallback;global_median_fallback;annual_energy_scaled_to_20.6TWh(factor=2.427)";unknown;32796.66
4e6302b0-7f07-11ec-8e2b-6b25de0016cf;penta-infra-hamburg;Penta Infra;;3.6;10.002862524189048;53.61969779393591;;POINT (10.002862524189048 53.61969779393591);cloudscene;3.6;"reported_gross_max_power;annual_energy_scaled_to_20.6TWh(factor=2.427)";unknown;24028.08
5dab48e8-e2ef-4ed2-a8b8-0cb401d68784;telia-carrier-hamburg;Arelion;;;10.01582;53.6376;;POINT (10.01582 53.6376);cloudscene;4.91;"pending_company_or_global_fallback;global_median_fallback;annual_energy_scaled_to_20.6TWh(factor=2.427)";unknown;32796.66
a19d9700-3d39-11ec-99a3-fdd010040708;telia-carrier-hamburg-2;Arelion;;;;;;;cloudscene;4.91;"pending_company_or_global_fallback;global_median_fallback;annual_energy_scaled_to_20.6TWh(factor=2.427)";unknown;32796.66
fe701caf-f462-4a0c-adc7-9c7dc59eabe2;scaleup-technologies-airport;ScaleUp Technologies;;;10.00141;53.61969999999999;Hamburg  22335 DE;POINT (10.00141 53.61969999999999);cloudscene;4.91;"pending_company_or_global_fallback;global_median_fallback;annual_energy_scaled_to_20.6TWh(factor=2.427)";unknown;32796.66
1f9ab75a-9144-11e7-a556-02028ff44134;akquinet-hamburg-2;Akquinet;;;10.0259959;53.6163777;Hamburg Hamburg 22337 DE;POINT (10.0259959 53.6163777);cloudscene;4.91;"pending_company_or_global_fallback;global_median_fallback;annual_energy_scaled_to_20.6TWh(factor=2.427)";unknown;32796.66
1f7f3dbc-9144-11e7-a556-02028ff44134;kpn-cyber-center-hamburg;KPN;0.0;;10.0382504;53.5509977;Hamburg Hamburg 20537 Germany;POINT (10.0382504 53.5509977);cloudscene;4.91;"pending_company_or_global_fallback;global_median_fallback;annual_energy_scaled_to_20.6TWh(factor=2.427)";enterprise;29815.15
1f6e0c4e-9144-11e7-a556-02028ff44134;centurylink-hamburg-1;Colt Technology Services;8394.0;5.4;10.043328;53.547843;Hamburg Hamburg 20537 Germany;POINT (10.043328 53.547843);cloudscene;5.4;"reported_gross_max_power;annual_energy_scaled_to_20.6TWh(factor=2.427)";colocation;42595.23
1f52ad28-9144-11e7-a556-02028ff44134;global-connect-hamburg;GlobalConnect;0.0;;10.0470574;53.5509116;Hamburg Hamburg 20537 DE;POINT (10.0470574 53.5509116);cloudscene;4.91;"pending_company_or_global_fallback;global_median_fallback;annual_energy_scaled_to_20.6TWh(factor=2.427)";unknown;32796.66
ea3674c6-e399-4da3-a393-0d8687e040e2;omcnet-internet-service-hamburg;OMCnet Internet Service;;;10.0467695;53.5509688;Hamburg  20537 DE;POINT (10.0467695 53.5509688);cloudscene;4.91;"pending_company_or_global_fallback;global_median_fallback;annual_energy_scaled_to_20.6TWh(factor=2.427)";unknown;32796.66
1f94e449-9144-11e7-a556-02028ff44134;colt-technology-services-hamburg-2;Colt Technology Services;;;10.001249;53.61975;Hamburg Hamburg 22335 DE;POINT (10.001249 53.61975);cloudscene;4.91;"pending_company_or_global_fallback;company_mean_estimate;annual_energy_scaled_to_20.6TWh(factor=2.427)";colocation;38759.69
1fa02bfd-9144-11e7-a556-02028ff44134;plusserver-hamburg;PlusServer;;;9.9989;53.67698;Hamburg  22419 DE;POINT (9.998899999999999 53.67698);cloudscene;4.91;"pending_company_or_global_fallback;global_median_fallback;annual_energy_scaled_to_20.6TWh(factor=2.427)";hosting_cloud;35778.18
c9be5d40-c9ad-11eb-bd11-e1c23b147139;lynet-hamburg;LYNET;;;;;;;cloudscene;4.91;"pending_company_or_global_fallback;global_median_fallback;annual_energy_scaled_to_20.6TWh(factor=2.427)";unknown;32796.66
1f50966b-9144-11e7-a556-02028ff44134;ntt-global-data-centers-emea-hamburg-1;NTT DATA Global Data Centers;;0.8;10.01584;53.63718;Hamburg Hamburg 22335 Germany;POINT (10.01584 53.63718);cloudscene;0.8;"reported_gross_max_power;annual_energy_scaled_to_20.6TWh(factor=2.427)";unknown;5339.57
1f91d01c-9144-11e7-a556-02028ff44134;pironet-ndh-hamburg;CANCOM Pironet;;;10.00802;53.61915;Hamburg Hamburg 22335 Germany;POINT (10.00802 53.61915);cloudscene;4.91;"pending_company_or_global_fallback;global_median_fallback;annual_energy_scaled_to_20.6TWh(factor=2.427)";unknown;32796.66
64d1a0f8-5b93-4739-a0f7-d989d876228f;aixit-aix-hh2;Aixit;;;10.0156801;53.63873;Hamburg  22335 DE;POINT (10.0156801 53.63873);cloudscene;4.91;"pending_company_or_global_fallback;global_median_fallback;annual_energy_scaled_to_20.6TWh(factor=2.427)";unknown;32796.66
1f93dfd2-9144-11e7-a556-02028ff44134;akquinet-hamburg;Akquinet;;;10.0254496;53.6119436;Hamburg Hamburg 22297 DE;POINT (10.0254496 53.6119436);cloudscene;4.91;"pending_company_or_global_fallback;global_median_fallback;annual_energy_scaled_to_20.6TWh(factor=2.427)";unknown;32796.66
1f94e5d8-9144-11e7-a556-02028ff44134;colt-technology-services-hamburg-3;Colt Technology Services;;;9.9872373;53.5563693;Hamburg Hamburg 20354 DE;POINT (9.9872373 53.5563693);cloudscene;4.91;"pending_company_or_global_fallback;company_mean_estimate;annual_energy_scaled_to_20.6TWh(factor=2.427)";colocation;38759.69
94fa4480-9f2e-11ec-88fa-bbc4a671fc59;atlas-edge-data-centres-hamburg;Atlas Edge Data Centres;;7.2;;;;;cloudscene;7.2;"reported_gross_max_power;annual_energy_scaled_to_20.6TWh(factor=2.427)";unknown;48056.16
541b9d35-5b91-4726-ae67-80ed41715e49;equinix-hh1;Equinix;;;9.97477;53.64479;Hamburg  22453 DE;POINT (9.97477 53.64479);cloudscene;9.83;"pending_company_or_global_fallback;company_mean_estimate;annual_energy_scaled_to_20.6TWh(factor=2.427)";colocation;77499.66
1f6fb2a4-9144-11e7-a556-02028ff44134;n@work-internet-information-systems-wandalenweg;n@work Internet Information Systems;0.0;;10.0226517;53.54974840000001;Hamburg Hamburg 20097 Germany;POINT (10.0226517 53.54974840000001);cloudscene;4.91;"pending_company_or_global_fallback;global_median_fallback;annual_energy_scaled_to_20.6TWh(factor=2.427)";unknown;32796.66
dfec3cc0-00f2-11ee-b826-9556c39a9d41;iphh-internet-port-hamburg-hh3r1;IPHH Internet Port Hamburg;;;;;;;cloudscene;1.08;"pending_company_or_global_fallback;company_mean_estimate;annual_energy_scaled_to_20.6TWh(factor=2.427)";unknown;7208.42
9df074a0-e6c7-11ec-ba82-679b1112bd4c;1-1-versatel-hamburg;1 & 1 Versatel;;;;;;;cloudscene;4.91;"pending_company_or_global_fallback;global_median_fallback;annual_energy_scaled_to_20.6TWh(factor=2.427)";hosting_cloud;35778.18
1f6efc28-9144-11e7-a556-02028ff44134;itenos-hamburg;ITENOS;6000.0;5.0;10.07606;53.5474;Hamburg Hamburg 22111 DE;POINT (10.07606 53.5474);cloudscene;5.0;"reported_gross_max_power;annual_energy_scaled_to_20.6TWh(factor=2.427)";unknown;33372.33
e447628c-9426-478a-bb16-70718cabadf8;aixit-aix-hh1;Aixit;;;10.0470574;53.5509116;Hamburg  20537 DE;POINT (10.0470574 53.5509116);cloudscene;4.91;"pending_company_or_global_fallback;global_median_fallback;annual_energy_scaled_to_20.6TWh(factor=2.427)";unknown;32796.66
1f78a18f-9144-11e7-a556-02028ff44134;globalconnect-hamburg-5;GlobalConnect;0.0;;10.0156801;53.63873;Hamburg Hamburg 22335 DE;POINT (10.0156801 53.63873);cloudscene;4.91;"pending_company_or_global_fallback;global_median_fallback;annual_energy_scaled_to_20.6TWh(factor=2.427)";unknown;32796.66
91450540-c9ad-11eb-a6fb-d72d20bf4b73;lynet-lubeck;LYNET;;;;;;;cloudscene;4.91;"pending_company_or_global_fallback;global_median_fallback;annual_energy_scaled_to_20.6TWh(factor=2.427)";unknown;32796.66
1f4de307-9144-11e7-a556-02028ff44134;colt-technology-services-hamburg-1;Colt Technology Services;0.0;7.2;9.99687;53.61995;Hamburg Hamburg 22335 Germany;POINT (9.99687 53.61995);cloudscene;7.2;"reported_gross_max_power;annual_energy_scaled_to_20.6TWh(factor=2.427)";colocation;56793.65
83acae50-fd4e-11ef-90fd-e99aa1d5a0b0;nlighten-ham1;nlighten;;;;;;;cloudscene;4.91;"pending_company_or_global_fallback;global_median_fallback;annual_energy_scaled_to_20.6TWh(factor=2.427)";colocation;38759.69
baed847b-4803-442b-ae17-ce443ebbe54f;globalconnect-hamburg-4;GlobalConnect;;;10.038666;53.5510053;Hamburg  20537 DE;POINT (10.038666 53.5510053);cloudscene;4.91;"pending_company_or_global_fallback;global_median_fallback;annual_energy_scaled_to_20.6TWh(factor=2.427)";unknown;32796.66
c178d813-98ee-464f-a799-ea350c847208;global-connect-hamburg-3;GlobalConnect;;;10.0480076;53.549318;Hamburg  20537 DE;POINT (10.0480076 53.549318);cloudscene;4.91;"pending_company_or_global_fallback;global_median_fallback;annual_energy_scaled_to_20.6TWh(factor=2.427)";unknown;32796.66
c0d8a460-220a-11ee-9917-c3c0a42bc0fe;iptox-hamburg;IPtoX;;;;;;;cloudscene;4.91;"pending_company_or_global_fallback;global_median_fallback;annual_energy_scaled_to_20.6TWh(factor=2.427)";unknown;32796.66
1f76ef66-9144-11e7-a556-02028ff44134;artfiles-new-media-hamburg;Artfiles New Media;550.0;;10.04809;53.5499;Hamburg Hamburg 20537 Germany;POINT (10.04809 53.5499);cloudscene;0.99;"density_model:type=unknown;density_kW_per_m2=1.2;pue=1.5;annual_energy_scaled_to_20.6TWh(factor=2.427)";unknown;6607.72
1f9ab8f1-9144-11e7-a556-02028ff44134;akquinet-norderstedt;Akquinet;;;9.9943244;53.7007641;Norderstedt Schleswig-Holstein 22846 DE;POINT (9.9943244 53.7007641);cloudscene;4.91;"pending_company_or_global_fallback;global_median_fallback;annual_energy_scaled_to_20.6TWh(factor=2.427)";unknown;32796.66
77b003a9-c31b-4a3e-8062-c67d79a6beca;scaleup-technologies-fuhlsbuttel;ScaleUp Technologies;;;10.01584;53.63718;Hamburg  22335 DE;POINT (10.01584 53.63718);cloudscene;4.91;"pending_company_or_global_fallback;global_median_fallback;annual_energy_scaled_to_20.6TWh(factor=2.427)";unknown;32796.66
1f91dcd0-9144-11e7-a556-02028ff44134;qsc-hamburg;qbeyond;;;10.009186;53.592964;Hamburg Hamburg 22303 Germany;POINT (10.009186 53.592964);cloudscene;4.91;"pending_company_or_global_fallback;global_median_fallback;annual_energy_scaled_to_20.6TWh(factor=2.427)";unknown;32796.66
1fa02031-9144-11e7-a556-02028ff44134;n-work-internet-information-systems-grevenweg;n@work Internet Information Systems;;;10.04365;53.54799;Hamburg  20537 DE;POINT (10.04365 53.54799);cloudscene;4.91;"pending_company_or_global_fallback;global_median_fallback;annual_energy_scaled_to_20.6TWh(factor=2.427)";unknown;32796.66
1f706e81-9144-11e7-a556-02028ff44134;eunetworks-eunetworks-hamburg;euNetworks;0.0;;10.04809;53.5499;Hamburg Hamburg 20537 Germany;POINT (10.04809 53.5499);cloudscene;4.91;"pending_company_or_global_fallback;global_median_fallback;annual_energy_scaled_to_20.6TWh(factor=2.427)";unknown;32796.66
1f6e0f9c-9144-11e7-a556-02028ff44134;centurylink-hamburg-2;Colt Technology Services;0.0;;10.04583;53.55108999999999;Hamburg Hamburg 20537 Germany;POINT (10.04583 53.55108999999999);cloudscene;4.91;"pending_company_or_global_fallback;company_mean_estimate;annual_energy_scaled_to_20.6TWh(factor=2.427)";colocation;38759.69
b796ea8e-96a1-446b-8f15-37cbad51132d;scaleup-technologies-hammerbrook;ScaleUp Technologies;;;10.0436114;53.5476407;Hamburg  20537 DE;POINT (10.0436114 53.5476407);cloudscene;4.91;"pending_company_or_global_fallback;global_median_fallback;annual_energy_scaled_to_20.6TWh(factor=2.427)";unknown;32796.66
53193080-c9af-11eb-94be-e7b200abfcb6;wizard-computersysteme-bremervorde-1;Wizard Computersysteme;;;;;;;cloudscene;4.91;"pending_company_or_global_fallback;global_median_fallback;annual_energy_scaled_to_20.6TWh(factor=2.427)";unknown;32796.66
47eb0031-a121-4d57-b5cf-a0554d1b41c1;cable-wireless-communications-hamburg;Cable & Wireless Communications;;;10.0480076;53.549318;Hamburg  20537 DE;POINT (10.0480076 53.549318);cloudscene;4.91;"pending_company_or_global_fallback;global_median_fallback;annual_energy_scaled_to_20.6TWh(factor=2.427)";unknown;32796.66
9edda750-00f2-11ee-b0c8-0b2cf042a907;iphh-internet-port-hamburg-hh2r2;IPHH Internet Port Hamburg;;;;;;;cloudscene;1.08;"pending_company_or_global_fallback;company_mean_estimate;annual_energy_scaled_to_20.6TWh(factor=2.427)";unknown;7208.42
1f820cab-9144-11e7-a556-02028ff44134;irz42-hamburg;IRZ42;0.0;;10.0247707;53.5743164;Hamburg Hamburg 22083 Germany;POINT (10.0247707 53.5743164);cloudscene;4.91;"pending_company_or_global_fallback;global_median_fallback;annual_energy_scaled_to_20.6TWh(factor=2.427)";unknown;32796.66
1f6fb913-9144-11e7-a556-02028ff44134;n@work-internet-information-systems-wendenstrabe;n@work Internet Information Systems;0.0;;10.0467695;53.5509688;Hamburg Hamburg 20537 Germany;POINT (10.0467695 53.5509688);cloudscene;4.91;"pending_company_or_global_fallback;global_median_fallback;annual_energy_scaled_to_20.6TWh(factor=2.427)";unknown;32796.66
1f7f3f50-9144-11e7-a556-02028ff44134;stadtwerke-norderstedt-norderstedt;Stadtwerke Norderstedt;0.0;;9.9942218;53.706205;Norderstedt Schleswig-Holstein 22846 Germany;POINT (9.9942218 53.706205);cloudscene;4.91;"pending_company_or_global_fallback;global_median_fallback;annual_energy_scaled_to_20.6TWh(factor=2.427)";unknown;32796.66
010050f3-7ba2-47f7-851b-adb649c6ba48;bt-hamburg;BT;;;10.0480076;53.549318;Hamburg  20537 DE;POINT (10.0480076 53.549318);cloudscene;4.91;"pending_company_or_global_fallback;global_median_fallback;annual_energy_scaled_to_20.6TWh(factor=2.427)";enterprise;29815.15
dfb8155b-9a42-45fd-810a-e666d59355a9;gopas-solutions-hamburg;GOPAS Solutions;;;10.04583;53.55108999999999;Hamburg  20537 DE;POINT (10.04583 53.55108999999999);cloudscene;4.91;"pending_company_or_global_fallback;global_median_fallback;annual_energy_scaled_to_20.6TWh(factor=2.427)";unknown;32796.66
1f6e12fc-9144-11e7-a556-02028ff44134;centurylink-hamburg-3;Colt Technology Services;0.0;;10.01579;53.63941;Hamburg Hamburg 22335 Germany;POINT (10.01579 53.63941);cloudscene;4.91;"pending_company_or_global_fallback;company_mean_estimate;annual_energy_scaled_to_20.6TWh(factor=2.427)";colocation;38759.69
5aa9e090-9daa-11ec-8bc1-fbcd03fb6c8f;globalconnect-hamburg-2;GlobalConnect;;;;;;;cloudscene;4.91;"pending_company_or_global_fallback;global_median_fallback;annual_energy_scaled_to_20.6TWh(factor=2.427)";unknown;32796.66
ccc51b7b-92af-4e74-b994-0810ecbea8f5;signal-iduna-hamburg;Signal Iduna;;;9.99229;53.56039999999999;Hamburg  20354 DE;POINT (9.992289999999999 53.56039999999999);cloudscene;4.91;"pending_company_or_global_fallback;global_median_fallback;annual_energy_scaled_to_20.6TWh(factor=2.427)";unknown;32796.66
afc1f336-5b99-47d3-86aa-de45c9368acc;telemaxx-telekommunikation-ipc-1;Telemaxx Telekommunikation;;;8.3468;49.01349;Karlsruhe Baden-Wurttemberg 76189 DE;POINT (8.3468 49.01349);cloudscene;4.8;"pending_company_or_global_fallback;company_mean_estimate;annual_energy_scaled_to_20.6TWh(factor=2.427)";unknown;32037.44
34fa9f00-c8ec-11eb-a4ce-2113c25ebc10;ilk-karlsruhe;ILK;;;;;;;cloudscene;4.91;"pending_company_or_global_fallback;global_median_fallback;annual_energy_scaled_to_20.6TWh(factor=2.427)";unknown;32796.66
4435908e-461a-4487-983c-89278f46e295;telemaxx-telekommunikation-ipc-4;Telemaxx Telekommunikation;3000.0;;8.47312;49.02726;Karlsruhe Baden-Wurttemberg 76229 DE;POINT (8.47312 49.02726);cloudscene;5.4;"density_model:type=unknown;density_kW_per_m2=1.2;pue=1.5;annual_energy_scaled_to_20.6TWh(factor=2.427)";unknown;36042.12
3f63dc58-fa51-4141-ac6b-d63d439b181b;telemaxx-telekommunikation-ipc-5;Telemaxx Telekommunikation;;;8.4579395;49.0783944;Gewerbegebiet Blankenloch West, Blankenloch, Stutensee Landkreis Karlsruhe Baden-Wurttemberg 76297 DE;POINT (8.4579395 49.0783944);cloudscene;4.8;"pending_company_or_global_fallback;company_mean_estimate;annual_energy_scaled_to_20.6TWh(factor=2.427)";unknown;32037.44
ae0d571d-fb03-464e-8543-a595400b723e;telemaxx-telekommunikation-ipc-2;Telemaxx Telekommunikation;;;8.4399774;49.0196048;Karlsruhe Baden-Wurttemberg 76131 DE;POINT (8.4399774 49.0196048);cloudscene;4.8;"pending_company_or_global_fallback;company_mean_estimate;annual_energy_scaled_to_20.6TWh(factor=2.427)";unknown;32037.44
1f7076b5-9144-11e7-a556-02028ff44134;eunetworks-eunetworks-karlsruhe;euNetworks;0.0;;8.440479999999999;49.02012999999999;Karlsruhe Baden-Wurttemberg 76131 Germany;POINT (8.440479999999999 49.02012999999999);cloudscene;4.91;"pending_company_or_global_fallback;global_median_fallback;annual_energy_scaled_to_20.6TWh(factor=2.427)";unknown;32796.66
1f5469bf-9144-11e7-a556-02028ff44134;telemaxx-telekommunikation-ipc-3;Telemaxx Telekommunikation;1600.0;4.2;8.464287;48.995607;Karlsruhe Baden-Wurttemberg 76227 Germany;POINT (8.464287 48.995607);cloudscene;4.2;"reported_gross_max_power;annual_energy_scaled_to_20.6TWh(factor=2.427)";unknown;28032.76
1f6e0251-9144-11e7-a556-02028ff44134;centurylink-cologne;Lumen Technologies;0.0;;7.0281672;50.9703368;Cologne North Rhine-Westphalia 51063 Germany;POINT (7.0281672 50.9703368);cloudscene;4.91;"pending_company_or_global_fallback;global_median_fallback;annual_energy_scaled_to_20.6TWh(factor=2.427)";unknown;32796.66
1f8207c7-9144-11e7-a556-02028ff44134;surf-planet-cologne;Surf planet;0.0;;7.01973;50.9766426;Cologne North Rhine-Westphalia 51063 Germany;POINT (7.01973 50.9766426);cloudscene;4.91;"pending_company_or_global_fallback;global_median_fallback;annual_energy_scaled_to_20.6TWh(factor=2.427)";unknown;32796.66
ed6531f3-9aac-4ad8-a757-188850123828;arcor-cologne;Arcor;;;6.9606502;50.9439223;Cologne North Rhine-Westphalia 50668 DE;POINT (6.9606502 50.9439223);cloudscene;4.91;"pending_company_or_global_fallback;global_median_fallback;annual_energy_scaled_to_20.6TWh(factor=2.427)";unknown;32796.66
a3273e44-92d9-4f71-9089-39e151e4efa8;penta-infra-cgn01;Penta Infra;;0.5;7.0030122;50.9348314;Cologne North Rhine-Westphalia 51105 DE;POINT (7.0030122 50.9348314);cloudscene;0.5;"reported_gross_max_power;annual_energy_scaled_to_20.6TWh(factor=2.427)";unknown;3337.23
1f9bc183-9144-11e7-a556-02028ff44134;cbc-cologne;CBC;;;6.971312999999999;50.9432501;Cologne North Rhine-Westphalia 50679 DE;POINT (6.971312999999999 50.9432501);cloudscene;4.91;"pending_company_or_global_fallback;global_median_fallback;annual_energy_scaled_to_20.6TWh(factor=2.427)";unknown;32796.66
1fa02382-9144-11e7-a556-02028ff44134;plusserver-cologne;PlusServer;;;7.060759999999999;50.91076;Cologne North Rhine-Westphalia 51149 DE;POINT (7.060759999999999 50.91076);cloudscene;4.91;"pending_company_or_global_fallback;global_median_fallback;annual_energy_scaled_to_20.6TWh(factor=2.427)";hosting_cloud;35778.18
acdd6a6c-db52-445f-b21e-b2a25e8eb531;netcologne-cologne;NetCologne;;;6.889485899999999;50.9446997;Cologne North Rhine-Westphalia 50993 DE;POINT (6.889485899999999 50.9446997);cloudscene;4.91;"pending_company_or_global_fallback;global_median_fallback;annual_energy_scaled_to_20.6TWh(factor=2.427)";unknown;32796.66
1f94dc16-9144-11e7-a556-02028ff44134;colt-technology-services-cologne;Colt Technology Services;;;6.94429;50.93978;Cologne North Rhine-Westphalia 50672 DE;POINT (6.94429 50.93978);cloudscene;4.91;"pending_company_or_global_fallback;company_mean_estimate;annual_energy_scaled_to_20.6TWh(factor=2.427)";colocation;38759.69
7af6a300-2022-11ec-ada8-2fe898db8cdd;kevag-telekom-koblenz;KEVAG Telekom;;;;;;;cloudscene;4.91;"pending_company_or_global_fallback;global_median_fallback;annual_energy_scaled_to_20.6TWh(factor=2.427)";unknown;32796.66
2b4719f6-addf-4ab0-bb35-e87884241678;ntt-global-data-centers-emea-rhine-ruhr-1;NTT DATA Global Data Centers;11400.0;8.0;7.0729207;50.7473697;Bonn North Rhine-Westphalia 53117 DE;POINT (7.0729207 50.7473697);cloudscene;8.0;"reported_gross_max_power;annual_energy_scaled_to_20.6TWh(factor=2.427)";unknown;53395.74
2e2e0820-fd4e-11ef-963d-419f7f52cd47;nlighten-cgn1;nlighten;;;;;;;cloudscene;4.91;"pending_company_or_global_fallback;global_median_fallback;annual_energy_scaled_to_20.6TWh(factor=2.427)";colocation;38759.69
1f960b4d-9144-11e7-a556-02028ff44134;bt-cologne;BT;;;6.891402599999999;50.9467867;Cologne North Rhine-Westphalia 50933 DE;POINT (6.891402599999999 50.9467867);cloudscene;4.91;"pending_company_or_global_fallback;global_median_fallback;annual_energy_scaled_to_20.6TWh(factor=2.427)";enterprise;29815.15
8d7cbb40-7105-11ed-87b2-4d1398b641d0;stellar-pcs-cologne;Stellar PCS;;;;;;;cloudscene;4.91;"pending_company_or_global_fallback;global_median_fallback;annual_energy_scaled_to_20.6TWh(factor=2.427)";unknown;32796.66
1f78803b-9144-11e7-a556-02028ff44134;host-europe-cologne;Host Europe;0.0;;7.056082200000001;50.9127118;Cologne North Rhein-Westphalia 51149 Germany;POINT (7.056082200000001 50.9127118);cloudscene;4.91;"pending_company_or_global_fallback;global_median_fallback;annual_energy_scaled_to_20.6TWh(factor=2.427)";unknown;32796.66
1f705838-9144-11e7-a556-02028ff44134;eunetworks-eunetworks-cologne;euNetworks;0.0;;6.973508199999999;50.9371817;Cologne North Rhine-Westphalia 50679 Germany;POINT (6.973508199999999 50.9371817);cloudscene;4.91;"pending_company_or_global_fallback;global_median_fallback;annual_energy_scaled_to_20.6TWh(factor=2.427)";unknown;32796.66
bc09c9b0-fe7d-11ed-873a-71e70fd1b08a;telia-dresden;Telia;;;;;;;cloudscene;4.91;"pending_company_or_global_fallback;global_median_fallback;annual_energy_scaled_to_20.6TWh(factor=2.427)";unknown;32796.66
1f7883ac-9144-11e7-a556-02028ff44134;mti-dresden;MTI;0.0;;13.6842482;51.0729734;Dresden Sachsen 01139 Germany;POINT (13.6842482 51.0729734);cloudscene;4.91;"pending_company_or_global_fallback;global_median_fallback;annual_energy_scaled_to_20.6TWh(factor=2.427)";unknown;32796.66
6129c860-b626-11ed-9dfd-d7f4571ecbb0;sachsen-gigabit-dresden;Sachsen GigaBit;;;;;;;cloudscene;4.91;"pending_company_or_global_fallback;global_median_fallback;annual_energy_scaled_to_20.6TWh(factor=2.427)";unknown;32796.66
1f705e9e-9144-11e7-a556-02028ff44134;eunetworks-eunetworks-dresden;euNetworks;0.0;;13.73229;51.03883;Dresden Saxony 01069 Germany;POINT (13.73229 51.03883);cloudscene;4.91;"pending_company_or_global_fallback;global_median_fallback;annual_energy_scaled_to_20.6TWh(factor=2.427)";unknown;32796.66
1fa001fe-9144-11e7-a556-02028ff44134;comarch-dresden;Comarch;600.0;;13.7157978;51.0364723;Dresden Saxony 01187 DE;POINT (13.7157978 51.0364723);cloudscene;1.08;"density_model:type=unknown;density_kW_per_m2=1.2;pue=1.5;annual_energy_scaled_to_20.6TWh(factor=2.427)";unknown;7208.42
1f8ab6db-9144-11e7-a556-02028ff44134;addix-internet-services-kiel;ADDIX Internet Services;0.0;;10.13212;54.31068;Kiel Schleswig-Holstein 24114 Germany;POINT (10.13212 54.31068);cloudscene;4.91;"pending_company_or_global_fallback;global_median_fallback;annual_energy_scaled_to_20.6TWh(factor=2.427)";unknown;32796.66
1f70784d-9144-11e7-a556-02028ff44134;eunetworks-eunetworks-kiel;euNetworks;0.0;;10.1136982;54.33740049999999;Kiel Schleswig-Holstein 24118 Germany;POINT (10.1136982 54.33740049999999);cloudscene;4.91;"pending_company_or_global_fallback;global_median_fallback;annual_energy_scaled_to_20.6TWh(factor=2.427)";unknown;32796.66
1f9adc19-9144-11e7-a556-02028ff44134;ennit-kiel;Ennit;;;10.1049271;54.36741;Kiel Schleswig-Holstein 24106 DE;POINT (10.1049271 54.36741);cloudscene;4.91;"pending_company_or_global_fallback;global_median_fallback;annual_energy_scaled_to_20.6TWh(factor=2.427)";unknown;32796.66
1f707bbe-9144-11e7-a556-02028ff44134;eunetworks-eunetworks-leipzig;euNetworks;0.0;;12.399707;51.36478229999999;Leipzig Saxony 04129 Germany;POINT (12.399707 51.36478229999999);cloudscene;4.91;"pending_company_or_global_fallback;global_median_fallback;annual_energy_scaled_to_20.6TWh(factor=2.427)";unknown;32796.66
1f9ba06e-9144-11e7-a556-02028ff44134;envia-tel-leipzig;Envia Tel;;;12.4736847;51.3730227;Taucha Saxony 04425 DE;POINT (12.4736847 51.3730227);cloudscene;4.91;"pending_company_or_global_fallback;global_median_fallback;annual_energy_scaled_to_20.6TWh(factor=2.427)";unknown;32796.66
d8c40df0-022b-11ed-8b71-03a99ed6479d;pyur-rechenzentrum-leipzig;PŸUR Business;;;;;;;cloudscene;4.91;"pending_company_or_global_fallback;global_median_fallback;annual_energy_scaled_to_20.6TWh(factor=2.427)";unknown;32796.66
002f0fc0-fd4f-11ef-a98a-2568277cef0e;nlighten-lej1;nlighten;;;;;;;cloudscene;4.91;"pending_company_or_global_fallback;global_median_fallback;annual_energy_scaled_to_20.6TWh(factor=2.427)";colocation;38759.69
1f81604c-9144-11e7-a556-02028ff44134;data-center-leipzig-taucha;Data Center Leipzig;0.0;;12.4736847;51.3730227;Taucha Saxony 04425 Germany;POINT (12.4736847 51.3730227);cloudscene;4.91;"pending_company_or_global_fallback;global_median_fallback;annual_energy_scaled_to_20.6TWh(factor=2.427)";unknown;32796.66
cbc6b6a9-07c3-4b3a-a637-57ff7ab2cdef;penta-infra-lej01;Penta Infra;;6.0;12.30138;51.33981;Leipzig Saxony 04179 DE;POINT (12.30138 51.33981);cloudscene;6.0;"reported_gross_max_power;annual_energy_scaled_to_20.6TWh(factor=2.427)";unknown;40046.8
1f6e3e38-9144-11e7-a556-02028ff44134;centurylink-leipzig;Colt Technology Services;0.0;;12.394637;51.34400979999999;Leipzig Saxony 04315 Germany;POINT (12.394637 51.34400979999999);cloudscene;4.91;"pending_company_or_global_fallback;company_mean_estimate;annual_energy_scaled_to_20.6TWh(factor=2.427)";colocation;38759.69
1f9ac29b-9144-11e7-a556-02028ff44134;ibm-kelsterbach;IBM;;;8.524149999999999;50.05252;Kelsterbach Hesse 65451 DE;POINT (8.524149999999999 50.05252);cloudscene;4.91;"pending_company_or_global_fallback;global_median_fallback;annual_energy_scaled_to_20.6TWh(factor=2.427)";enterprise;29815.15
1f961de6-9144-11e7-a556-02028ff44134;bt-frankfurt-2;BT;;;8.6579122;50.1900158;Frankfurt Hesse 60437 DE;POINT (8.6579122 50.1900158);cloudscene;4.91;"pending_company_or_global_fallback;global_median_fallback;annual_energy_scaled_to_20.6TWh(factor=2.427)";enterprise;29815.15
1f813e57-9144-11e7-a556-02028ff44134;cable-wireless-communications-frankfurt;Cable & Wireless Communications;0.0;;8.619926399999999;50.10314;Frankfurt Hesse 60326 Germany;POINT (8.619926399999999 50.10314);cloudscene;4.91;"pending_company_or_global_fallback;global_median_fallback;annual_energy_scaled_to_20.6TWh(factor=2.427)";unknown;32796.66
1f962827-9144-11e7-a556-02028ff44134;ibm-eschborn;IBM;;;8.5057668;50.1441252;Eschborn Frankfurt Hesse 65760 DE;POINT (8.5057668 50.1441252);cloudscene;4.91;"pending_company_or_global_fallback;global_median_fallback;annual_energy_scaled_to_20.6TWh(factor=2.427)";enterprise;29815.15
360388f0-0354-11ee-9e95-29a8365dd6f6;cloudhq-fra-campus-offenbach;CloudHQ;;;;;;;cloudscene;4.91;"pending_company_or_global_fallback;global_median_fallback;annual_energy_scaled_to_20.6TWh(factor=2.427)";unknown;32796.66
1f4f0256-9144-11e7-a556-02028ff44134;verizon-frankfurt;Verizon;1500.0;;8.6283927;50.09612689999999;Frankfurt Hessen 60326 Germany;POINT (8.6283927 50.09612689999999);cloudscene;2.4;"density_model:type=enterprise;density_kW_per_m2=1.0;pue=1.6;annual_energy_scaled_to_20.6TWh(factor=2.427)";enterprise;14562.47
1f5092ea-9144-11e7-a556-02028ff44134;ntt-global-data-centers-emea-frankfurt-2;NTT DATA Global Data Centers;;1.2;8.7388575;50.121229;Frankfurt Hesse 60314 Germany;POINT (8.7388575 50.121229);cloudscene;1.2;"reported_gross_max_power;annual_energy_scaled_to_20.6TWh(factor=2.427)";unknown;8009.36
1f3efe6f-9144-11e7-a556-02028ff44134;equinix-fr2;Equinix;55000.0;25.6;8.7402183;50.1437954;Frankfurt Hesse 60388 Germany;POINT (8.7402183 50.1437954);cloudscene;25.6;"reported_gross_max_power;annual_energy_scaled_to_20.6TWh(factor=2.427)";colocation;201932.96
5719b57d-5768-447d-9493-7df66069d0a3;interxion-fra-16;Digital Realty;11300.0;9.6;8.73873;50.1204;Frankfurt Hesse 60314 DE;POINT (8.73873 50.1204);cloudscene;9.6;"reported_gross_max_power;annual_energy_scaled_to_20.6TWh(factor=2.427)";colocation;75724.86
1f92508e-9144-11e7-a556-02028ff44134;cloudkleyer-frankfurt;cloudKleyer;0.0;;8.62598;50.09499;Frankfurt Hesse 60326 DE;POINT (8.62598 50.09499);cloudscene;4.91;"pending_company_or_global_fallback;global_median_fallback;annual_energy_scaled_to_20.6TWh(factor=2.427)";unknown;32796.66
1f7e938a-9144-11e7-a556-02028ff44134;nacamar-frankfurt;nacamar;0.0;;8.73541;50.1199;Frankfurt Hesse 60314 Germany;POINT (8.73541 50.1199);cloudscene;4.91;"pending_company_or_global_fallback;global_median_fallback;annual_energy_scaled_to_20.6TWh(factor=2.427)";unknown;32796.66
7b54c410-5db6-11ef-82b6-a304965f2a85;nlighten-fra1;nlighten;;;;;;;cloudscene;4.91;"pending_company_or_global_fallback;global_median_fallback;annual_energy_scaled_to_20.6TWh(factor=2.427)";colocation;38759.69
1f4c4202-9144-11e7-a556-02028ff44134;interxion-fra-2;Digital Realty;2000.0;0.4;8.73589;50.11995;Frankfurt Hesse 60314 Germany;POINT (8.73589 50.11995);cloudscene;0.4;"reported_gross_max_power;annual_energy_scaled_to_20.6TWh(factor=2.427)";colocation;3155.2
4cb225d0-0356-11ee-a7da-bb78d1d39e62;cloudhq-fra-campus-hochst;CloudHQ;;;;;;;cloudscene;4.91;"pending_company_or_global_fallback;global_median_fallback;annual_energy_scaled_to_20.6TWh(factor=2.427)";unknown;32796.66
1f9ac428-9144-11e7-a556-02028ff44134;orange-business-services-eschborn;Orange Business Services;;;8.56932;50.13199;Eschborn Hesse 65760 DE;POINT (8.56932 50.13199);cloudscene;4.91;"pending_company_or_global_fallback;global_median_fallback;annual_energy_scaled_to_20.6TWh(factor=2.427)";enterprise;29815.15
07853f96-f051-48d6-9615-cb471fcd4433;aixit-aix-1;Aixit;;;8.6295848;50.1009;Frankfurt Hesse 60326 DE;POINT (8.6295848 50.1009);cloudscene;4.91;"pending_company_or_global_fallback;global_median_fallback;annual_energy_scaled_to_20.6TWh(factor=2.427)";unknown;32796.66
1f4c43df-9144-11e7-a556-02028ff44134;interxion-fra-3;Digital Realty;3500.0;1.2;8.736254299999999;50.119006;Frankfurt Hesse 60314 Germany;POINT (8.736254299999999 50.119006);cloudscene;1.2;"reported_gross_max_power;annual_energy_scaled_to_20.6TWh(factor=2.427)";colocation;9465.61
1102e865-33c0-43ac-ac35-39c099c21047;cyrusone-frankfurt-ii;CyrusOne;8395.0;17.6;8.583001399999999;50.1281055;Frankfurt Hesse 65936 DE;POINT (8.583001399999999 50.1281055);cloudscene;17.6;"reported_gross_max_power;annual_energy_scaled_to_20.6TWh(factor=2.427)";unknown;117470.62
1f7678c6-9144-11e7-a556-02028ff44134;ibm-frankfurt-am-main;IBM;0.0;;8.579559999999999;50.12880999999999;Frankfurt Hessen 65936 Germany;POINT (8.579559999999999 50.12880999999999);cloudscene;4.91;"pending_company_or_global_fallback;global_median_fallback;annual_energy_scaled_to_20.6TWh(factor=2.427)";enterprise;29815.15
1f5094c4-9144-11e7-a556-02028ff44134;ntt-global-data-centers-emea-frankfurt-3;NTT DATA Global Data Centers;;52.0;8.4501134;49.9740316;Russelsheim Hesse 65428 DE;POINT (8.4501134 49.9740316);cloudscene;52.0;"reported_gross_max_power;annual_energy_scaled_to_20.6TWh(factor=2.427)";unknown;347072.28
1f94e2bb-9144-11e7-a556-02028ff44134;colt-technology-services-frankfurt-4;Colt Technology Services;;;8.67242;50.12184999999999;Frankfurt Hesse 60322 DE;POINT (8.67242 50.12184999999999);cloudscene;4.91;"pending_company_or_global_fallback;company_mean_estimate;annual_energy_scaled_to_20.6TWh(factor=2.427)";colocation;38759.69
1f50a403-9144-11e7-a556-02028ff44134;global-switch-global-switch-frankfurt-south;Global Switch;17686.0;12.6;8.598073099999999;50.1299946;Frankfurt Hesse 60489 Germany;POINT (8.598073099999999 50.1299946);cloudscene;12.6;"reported_gross_max_power;annual_energy_scaled_to_20.6TWh(factor=2.427)";unknown;84098.28
6d2173d4-9130-4485-bca0-7439fbadfd51;bt-frankfurt-3;BT;;;8.6586647;50.1918628;Frankfurt Hesse 60437 DE;POINT (8.6586647 50.1918628);cloudscene;4.91;"pending_company_or_global_fallback;global_median_fallback;annual_energy_scaled_to_20.6TWh(factor=2.427)";enterprise;29815.15
d41cd730-2014-11ec-8d05-c9a2a6e73db1;anetsisnet-frankfurt;ANETSIS.Net;;;;;;;cloudscene;4.91;"pending_company_or_global_fallback;global_median_fallback;annual_energy_scaled_to_20.6TWh(factor=2.427)";unknown;32796.66
1f4dae3a-9144-11e7-a556-02028ff44134;telehouse-telehouse-frankfurt;Telehouse;0.0;18.9;8.6283927;50.09612689999999;Frankfurt Hesse 60326 DE;POINT (8.6283927 50.09612689999999);cloudscene;18.9;"reported_gross_max_power;annual_energy_scaled_to_20.6TWh(factor=2.427)";unknown;126147.43
b245dac0-2620-4b2c-a8d4-744efc19663f;ntt-global-data-centers-emea-frankfurt-4;NTT DATA Global Data Centers;66566.0;12.0;8.4853495;50.0638679;Hattersheim Hesse 65795 DE;POINT (8.4853495 50.0638679);cloudscene;12.0;"reported_gross_max_power;annual_energy_scaled_to_20.6TWh(factor=2.427)";unknown;80093.6
57c27b8e-12a3-4400-9ea3-cbe59b7ff345;mainova-frankfurt;Mainova;;;8.636989999999999;50.11892;Frankfurt Hesse 60486 DE;POINT (8.636989999999999 50.11892);cloudscene;4.91;"pending_company_or_global_fallback;global_median_fallback;annual_energy_scaled_to_20.6TWh(factor=2.427)";unknown;32796.66
537b0730-d8e7-11ed-b748-cd65b9b8ae94;performive-frankfurt;Performive;;;;;;;cloudscene;4.91;"pending_company_or_global_fallback;global_median_fallback;annual_energy_scaled_to_20.6TWh(factor=2.427)";unknown;32796.66
00a2b426-26ab-41d3-abe2-b04291276246;aixit-aix-f9;Aixit;;;8.6325819;50.099206;Frankfurt Hesse 60326 DE;POINT (8.6325819 50.099206);cloudscene;4.91;"pending_company_or_global_fallback;global_median_fallback;annual_energy_scaled_to_20.6TWh(factor=2.427)";unknown;32796.66
74e0401b-10d3-4cbb-a59f-b77e53f55ba0;cyrusone-frankfurt-i;CyrusOne;10000.0;9.1;8.583001399999999;50.1281055;Frankfurt Hesse 65936 DE;POINT (8.583001399999999 50.1281055);cloudscene;9.1;"reported_gross_max_power;annual_energy_scaled_to_20.6TWh(factor=2.427)";unknown;60737.65
1f3f0477-9144-11e7-a556-02028ff44134;equinix-fr4;Equinix;10500.0;8.96;8.5876179;50.097982;Frankfurt Hesse 65933 Germany;POINT (8.5876179 50.097982);cloudscene;8.96;"reported_gross_max_power;annual_energy_scaled_to_20.6TWh(factor=2.427)";colocation;70676.54
e91b86ec-8bd6-42c3-8427-d7181f733eaa;interxion-fra-10;Digital Realty;13800.0;9.6;8.7382002;50.1196098;Frankfurt Hesse 60314 DE;POINT (8.7382002 50.1196098);cloudscene;9.6;"reported_gross_max_power;annual_energy_scaled_to_20.6TWh(factor=2.427)";colocation;75724.86
1f961aa6-9144-11e7-a556-02028ff44134;bt-frankfurt;BT;;;8.71885;50.11441;Frankfurt Hesse 60314 DE;POINT (8.71885 50.11441);cloudscene;4.91;"pending_company_or_global_fallback;global_median_fallback;annual_energy_scaled_to_20.6TWh(factor=2.427)";enterprise;29815.15
1f813fea-9144-11e7-a556-02028ff44134;claranet-frankfurt;Claranet;0.0;;8.7231802;50.1148724;Frankfurt Hesse 60314 Germany;POINT (8.7231802 50.1148724);cloudscene;4.91;"pending_company_or_global_fallback;global_median_fallback;annual_energy_scaled_to_20.6TWh(factor=2.427)";unknown;32796.66
1f4c5269-9144-11e7-a556-02028ff44134;interxion-fra-4;Digital Realty;2300.0;1.2;8.7356657;50.1188482;Frankfurt Hesse 60314 Germany;POINT (8.7356657 50.1188482);cloudscene;1.2;"reported_gross_max_power;annual_energy_scaled_to_20.6TWh(factor=2.427)";colocation;9465.61
dec8c740-a0fa-11ed-bffd-cf09c84b6cb6;stack-infrastructure-fral1;Stack Infrastructure;;;;;;;cloudscene;4.91;"pending_company_or_global_fallback;global_median_fallback;annual_energy_scaled_to_20.6TWh(factor=2.427)";unknown;32796.66
2f013500-3c67-11ec-8fca-3d25a551c67c;equinix-fr8;Equinix;;;;;;;cloudscene;9.83;"pending_company_or_global_fallback;company_mean_estimate;annual_energy_scaled_to_20.6TWh(factor=2.427)";colocation;77499.66
c502e410-035b-11ee-b508-97a62cf4d831;cyrusone-fra5;CyrusOne;;;;;;;cloudscene;16.23;"pending_company_or_global_fallback;company_mean_estimate;annual_energy_scaled_to_20.6TWh(factor=2.427)";unknown;108348.85
1f94e124-9144-11e7-a556-02028ff44134;colt-technology-services-frankfurt-3;Colt Technology Services;;;8.678731599999999;50.1192438;Frankfurt Hesse 60322 DE;POINT (8.678731599999999 50.1192438);cloudscene;4.91;"pending_company_or_global_fallback;company_mean_estimate;annual_energy_scaled_to_20.6TWh(factor=2.427)";colocation;38759.69
21634a80-201f-11ec-b344-b91f3a0060cd;vodafone-frankfurt-3;Vodafone;;;;;;;cloudscene;4.91;"pending_company_or_global_fallback;global_median_fallback;annual_energy_scaled_to_20.6TWh(factor=2.427)";unknown;32796.66
1f4c5eca-9144-11e7-a556-02028ff44134;interxion-fra-8;Digital Realty;7700.0;5.6;8.7379909;50.1197191;Frankfurt Hesse 60314 Germany;POINT (8.7379909 50.1197191);cloudscene;5.6;"reported_gross_max_power;annual_energy_scaled_to_20.6TWh(factor=2.427)";colocation;44172.84
1f9ea01b-9144-11e7-a556-02028ff44134;cyxtera-fra1;Centersquare;;1.5;8.734689999999999;50.11964;Frankfurt am Main Hesse 60314 DE;POINT (8.734689999999999 50.11964);cloudscene;1.5;"reported_gross_max_power;annual_energy_scaled_to_20.6TWh(factor=2.427)";unknown;10011.7
9c7b6400-cc62-11ed-ab34-99435b395c4d;leaseweb-fra-14;LeaseWeb;;;;;;;cloudscene;120.6;"pending_company_or_global_fallback;company_mean_estimate;annual_energy_scaled_to_20.6TWh(factor=2.427)";unknown;804940.72
1f820b10-9144-11e7-a556-02028ff44134;witcom-witcom-dc-1;Witcom;0.0;;8.23624;50.06368;Wiesbaden Hesse 65189 DE;POINT (8.23624 50.06368);cloudscene;4.91;"pending_company_or_global_fallback;global_median_fallback;annual_energy_scaled_to_20.6TWh(factor=2.427)";unknown;32796.66
1f91ce81-9144-11e7-a556-02028ff44134;interxion-fra-9;Digital Realty;1800.0;1.2;8.73541;50.1199;Frankfurt Hesse 60314 Germany;POINT (8.73541 50.1199);cloudscene;1.2;"reported_gross_max_power;annual_energy_scaled_to_20.6TWh(factor=2.427)";colocation;9465.61
1f94df71-9144-11e7-a556-02028ff44134;colt-technology-services-frankfurt-2;Colt Technology Services;;;8.618992;50.1026347;Frankfurt Hesse 60326 DE;POINT (8.618992 50.1026347);cloudscene;4.91;"pending_company_or_global_fallback;company_mean_estimate;annual_energy_scaled_to_20.6TWh(factor=2.427)";colocation;38759.69
1f6e05a3-9144-11e7-a556-02028ff44134;centurylink-frankfurt-1;Colt Technology Services;4333.0;3.6;8.619926399999999;50.10314;Frankfurt Hesse 60326 Germany;POINT (8.619926399999999 50.10314);cloudscene;3.6;"reported_gross_max_power;annual_energy_scaled_to_20.6TWh(factor=2.427)";colocation;28396.82
42c8d980-215f-425a-b29f-f6e7ebb21186;vodafone-frankfurt-2;Vodafone;;;8.6821267;50.1109221;Frankfurt Hesse 60326 DE;POINT (8.6821267 50.1109221);cloudscene;4.91;"pending_company_or_global_fallback;global_median_fallback;annual_energy_scaled_to_20.6TWh(factor=2.427)";unknown;32796.66
286a3a90-7d65-11ec-8e07-ede23cb84687;maincubes-maincubes-fra03;maincubes;27000.0;16.0;;;;;cloudscene;16.0;"reported_gross_max_power;annual_energy_scaled_to_20.6TWh(factor=2.427)";unknown;106791.47
1fa0311d-9144-11e7-a556-02028ff44134;3u-telecom-frankfurt;3U Telecom;;;8.6356928;50.0985995;Frankfurt Hesse 60326 DE;POINT (8.6356928 50.0985995);cloudscene;1.8;"pending_company_or_global_fallback;company_mean_estimate;annual_energy_scaled_to_20.6TWh(factor=2.427)";unknown;12014.04
1f789fb4-9144-11e7-a556-02028ff44134;newtelco-newtelco-frankfurt;NewTelco;0.0;2.0;8.6159198;50.1026744;Frankfurt am Main Hessen 60326 DE;POINT (8.6159198 50.1026744);cloudscene;2.0;"reported_gross_max_power;annual_energy_scaled_to_20.6TWh(factor=2.427)";unknown;13348.93
1f4dda3c-9144-11e7-a556-02028ff44134;cogent-communications-frankfurt;Cogent Communications;0.0;;8.6271989;50.0813425;Frankfurt Hesse 60528 Germany;POINT (8.6271989 50.0813425);cloudscene;4.91;"pending_company_or_global_fallback;global_median_fallback;annual_energy_scaled_to_20.6TWh(factor=2.427)";unknown;32796.66
845e33ee-4107-4232-a5ea-3d94c12f4eaa;vps-house-frankfurt;VPS House;12481.0;;8.631954499999999;50.0988483;Frankfurt Hesse 60326 DE;POINT (8.631954499999999 50.0988483);cloudscene;22.47;"density_model:type=unknown;density_kW_per_m2=1.2;pue=1.5;annual_energy_scaled_to_20.6TWh(factor=2.427)";unknown;149947.24
73564990-e440-4268-be26-efa4fb21b14d;vodafone-frankfurt;Vodafone;;;8.6371973;50.0993364;Frankfurt North Rhine-Westphalia 60326 DE;POINT (8.6371973 50.0993364);cloudscene;4.91;"pending_company_or_global_fallback;global_median_fallback;annual_energy_scaled_to_20.6TWh(factor=2.427)";unknown;32796.66
8f6c8ad0-d488-11eb-aa09-fd82c886dbc6;interxion-a-digital-realty-company-digital-park-sossenheim-fra-31;Digital Realty;13600.0;9.0;;;;;cloudscene;9.0;"reported_gross_max_power;annual_energy_scaled_to_20.6TWh(factor=2.427)";colocation;70992.06
e1d91721-9b64-4b3f-b6e4-e6d5bfac870a;global-switch-global-switch-frankfurt-north;Global Switch;11862.0;14.0;8.5984353;50.1298721;Frankfurt Hesse 60489 DE;POINT (8.5984353 50.1298721);cloudscene;14.0;"reported_gross_max_power;annual_energy_scaled_to_20.6TWh(factor=2.427)";unknown;93442.54
2b922301-e5cc-4dd5-b34e-c821a95d180b;mk-netzdienste-fra2;MK Netzdienste;;;8.5817123;50.1266837;Frankfurt Hesse 65936 DE;POINT (8.5817123 50.1266837);cloudscene;4.91;"pending_company_or_global_fallback;global_median_fallback;annual_energy_scaled_to_20.6TWh(factor=2.427)";unknown;32796.66
1f4c5615-9144-11e7-a556-02028ff44134;interxion-fra-5;Digital Realty;3000.0;1.2;8.73699;50.12045999999999;Frankfurt Hesse 60314 Germany;POINT (8.73699 50.12045999999999);cloudscene;1.2;"reported_gross_max_power;annual_energy_scaled_to_20.6TWh(factor=2.427)";colocation;9465.61
1f767730-9144-11e7-a556-02028ff44134;t-systems-frankfurt-am-main-2;T-Systems;0.0;;8.63804;50.17053;Frankfurt Hessen 60439 Germany;POINT (8.63804 50.17053);cloudscene;4.91;"pending_company_or_global_fallback;global_median_fallback;annual_energy_scaled_to_20.6TWh(factor=2.427)";enterprise;29815.15
1f3f0dfd-9144-11e7-a556-02028ff44134;equinix-fr5;Equinix;3500.0;3.69;8.632454;50.098527;Frankfurt Hesse 60326 Germany;POINT (8.632454 50.098527);cloudscene;3.69;"reported_gross_max_power;annual_energy_scaled_to_20.6TWh(factor=2.427)";colocation;29106.74
4602f639-3faf-4420-a48f-dc25d11b83c4;interxion-fra-11;Digital Realty;13000.0;9.6;8.7384721;50.1197497;Frankfurt Hesse  DE;POINT (8.7384721 50.1197497);cloudscene;9.6;"reported_gross_max_power;annual_energy_scaled_to_20.6TWh(factor=2.427)";colocation;75724.86
5e2b4e6a-36d9-4ba4-ac48-0f219d97992b;aixit-aix-f8;Aixit;;;8.630625499999999;50.1019325;Frankfurt Hesse 60386 DE;POINT (8.630625499999999 50.1019325);cloudscene;4.91;"pending_company_or_global_fallback;global_median_fallback;annual_energy_scaled_to_20.6TWh(factor=2.427)";unknown;32796.66
4ef4afcb-639a-486d-a7be-21340f8871f5;cyrusone-frankfurt-iii;CyrusOne;23000.0;22.0;8.583001399999999;50.1281055;Frankfurt Hesse 65936 DE;POINT (8.583001399999999 50.1281055);cloudscene;22.0;"reported_gross_max_power;annual_energy_scaled_to_20.6TWh(factor=2.427)";unknown;146838.27
1f4c5996-9144-11e7-a556-02028ff44134;interxion-fra-6;Digital Realty;5000.0;3.6;8.73527;50.12003000000001;Frankfurt Hesse 60314 Germany;POINT (8.73527 50.12003000000001);cloudscene;3.6;"reported_gross_max_power;annual_energy_scaled_to_20.6TWh(factor=2.427)";colocation;28396.82
1f9ad411-9144-11e7-a556-02028ff44134;mk-netzdienste-fra1;MK Netzdienste;;;8.647332;50.1053748;Frankfurt Hesse 60314 DE;POINT (8.647332 50.1053748);cloudscene;4.91;"pending_company_or_global_fallback;global_median_fallback;annual_energy_scaled_to_20.6TWh(factor=2.427)";unknown;32796.66
85d16597-3aa3-4013-837d-b1405841aa82;keppel-data-centres-maincubes-data-centre;Keppel Data Centres;;;8.742289999999999;50.1093;Offenbach am Main Hesse 65451 DE;POINT (8.742289999999999 50.1093);cloudscene;4.91;"pending_company_or_global_fallback;global_median_fallback;annual_energy_scaled_to_20.6TWh(factor=2.427)";unknown;32796.66
1f711b74-9144-11e7-a556-02028ff44134;bt-frankfurt-sossenheim;BT;0.0;;8.5833655;50.12726660000001;Frankfurt Hesse 65936 DE;POINT (8.5833655 50.12726660000001);cloudscene;4.91;"pending_company_or_global_fallback;global_median_fallback;annual_energy_scaled_to_20.6TWh(factor=2.427)";enterprise;29815.15
4eaeb9f0-0401-11ee-8ba9-0d14d4652556;entega-medianet-offenbach;Entega Medianet;;;;;;;cloudscene;4.91;"pending_company_or_global_fallback;global_median_fallback;annual_energy_scaled_to_20.6TWh(factor=2.427)";unknown;32796.66
1f767593-9144-11e7-a556-02028ff44134;t-systems-frankfurt-am-main-1;T-Systems;0.0;;8.63565;50.08174;Frankfurt Hessen 60528 Germany;POINT (8.63565 50.08174);cloudscene;4.91;"pending_company_or_global_fallback;global_median_fallback;annual_energy_scaled_to_20.6TWh(factor=2.427)";enterprise;29815.15
8c93e34b-14bc-4e4a-9316-695b40b030e1;interxion-fra-12;Digital Realty;3700.0;1.8;8.7377495;50.1196092;Frankfurt Hesse 60314 DE;POINT (8.7377495 50.1196092);cloudscene;1.8;"reported_gross_max_power;annual_energy_scaled_to_20.6TWh(factor=2.427)";colocation;14198.41
1f9e5d2e-9144-11e7-a556-02028ff44134;equinix-fr6;Equinix;;;8.5879643;50.0979386;Frankfurt Hesse 65933 DE;POINT (8.5879643 50.0979386);cloudscene;9.83;"pending_company_or_global_fallback;company_mean_estimate;annual_energy_scaled_to_20.6TWh(factor=2.427)";colocation;77499.66
cd1b7e0b-4e5c-4a10-a417-e9ec9ae56711;maincubes-frankfurt;maincubes;;6.0;8.742289999999999;50.1093;Offenbach Hesse 63067 DE;POINT (8.742289999999999 50.1093);cloudscene;6.0;"reported_gross_max_power;annual_energy_scaled_to_20.6TWh(factor=2.427)";unknown;40046.8
7b010580-6ea8-11ed-b986-67b13d3e1203;digital-realty-digital-park-sossenheim-fra29;Digital Realty;;;;;;;cloudscene;6.07;"pending_company_or_global_fallback;company_mean_estimate;annual_energy_scaled_to_20.6TWh(factor=2.427)";colocation;47916.05
5cde41f2-4a29-4c60-8fa6-bd6e235668e3;firstcolo-werkhaus;firstcolo;;;8.7429433;50.139593;Frankfurt am Main  60388 DE;POINT (8.7429433 50.139593);cloudscene;4.91;"pending_company_or_global_fallback;global_median_fallback;annual_energy_scaled_to_20.6TWh(factor=2.427)";unknown;32796.66
bb6196cf-67d0-40ea-8570-a543be1b522f;cyxtera-fra2;Centersquare;;3.0;8.5821998;50.127319;Frankfurt Hesse 65936 DE;POINT (8.5821998 50.127319);cloudscene;3.0;"reported_gross_max_power;annual_energy_scaled_to_20.6TWh(factor=2.427)";unknown;20023.4
1f96033a-9144-11e7-a556-02028ff44134;witcom-witcom-dc-2;Witcom;;;8.254334799999999;50.0616654;Wiesbaden Frankfurt Hesse 65189 DE;POINT (8.254334799999999 50.0616654);cloudscene;4.91;"pending_company_or_global_fallback;global_median_fallback;annual_energy_scaled_to_20.6TWh(factor=2.427)";unknown;32796.66
1f6e074a-9144-11e7-a556-02028ff44134;centurylink-frankfurt-2;Colt Technology Services;0.0;;8.631763099999999;50.0996967;Frankfurt Hesse 60326 Germany;POINT (8.631763099999999 50.0996967);cloudscene;4.91;"pending_company_or_global_fallback;company_mean_estimate;annual_energy_scaled_to_20.6TWh(factor=2.427)";colocation;38759.69
1f4dd6c6-9144-11e7-a556-02028ff44134;colt-technology-services-frankfurt-1;Colt Technology Services;0.0;2.16;8.74001;50.12178;Frankfurt Hesse 60314 Germany;POINT (8.74001 50.12178);cloudscene;2.16;"reported_gross_max_power;annual_energy_scaled_to_20.6TWh(factor=2.427)";colocation;17038.09
4875dc00-cc62-11ed-995c-c122f0a8bec2;leaseweb-fra-01;LeaseWeb;;;;;;;cloudscene;120.6;"pending_company_or_global_fallback;company_mean_estimate;annual_energy_scaled_to_20.6TWh(factor=2.427)";unknown;804940.72
4b94a6db-657e-42fb-b471-2d5ac90b7c89;aixit-aix-f7;Aixit;;;8.6670771;50.1052936;Frankfurt Hesse 60386 DE;POINT (8.6670771 50.1052936);cloudscene;4.91;"pending_company_or_global_fallback;global_median_fallback;annual_energy_scaled_to_20.6TWh(factor=2.427)";unknown;32796.66
cd2d8da0-d488-11eb-84e5-e3b811be74d4;interxion-a-digital-realty-company-digital-park-sossenheim-fra-32;Digital Realty;13600.0;9.0;;;;;cloudscene;9.0;"reported_gross_max_power;annual_energy_scaled_to_20.6TWh(factor=2.427)";colocation;70992.06
24e787be-04d3-4805-b97e-d91e536564ed;aixit-aix-f6;Aixit;;;8.7385287;50.1208203;Frankfurt Hesse 60314 DE;POINT (8.7385287 50.1208203);cloudscene;4.91;"pending_company_or_global_fallback;global_median_fallback;annual_energy_scaled_to_20.6TWh(factor=2.427)";unknown;32796.66
bbb9b786-8dac-48fd-9697-2f170dbb523a;cogent-communications-frankfurt-2;Cogent Communications;;;8.68422;50.11625;Frankfurt Hesse 60313 DE;POINT (8.68422 50.11625);cloudscene;4.91;"pending_company_or_global_fallback;global_median_fallback;annual_energy_scaled_to_20.6TWh(factor=2.427)";unknown;32796.66
1f4cfd9f-9144-11e7-a556-02028ff44134;digital-realty-lyoner-strasse-fra28;Digital Realty;5400.0;15.84;8.6231561;50.0817092;Frankfurt Hessen 60528 DE;POINT (8.6231561 50.0817092);cloudscene;15.84;"reported_gross_max_power;annual_energy_scaled_to_20.6TWh(factor=2.427)";colocation;124946.02
1f6e0aa7-9144-11e7-a556-02028ff44134;centurylink-frankfurt-3;Colt Technology Services;0.0;;8.63461;50.1003;Frankfurt Hesse 60326 Germany;POINT (8.63461 50.1003);cloudscene;4.91;"pending_company_or_global_fallback;company_mean_estimate;annual_energy_scaled_to_20.6TWh(factor=2.427)";colocation;38759.69
9f24af76-a325-477c-bcc3-c84391a913ee;china-mobile-international-frankfurt-data-center-germany;China Mobile International;;10.8;8.5827055;49.9864943;Mörfelden-Walldorf Hesse 64546 DE;POINT (8.5827055 49.9864943);cloudscene;10.8;"reported_gross_max_power;annual_energy_scaled_to_20.6TWh(factor=2.427)";unknown;72084.24
feab378c-b102-47cb-8ff5-4aefa4808618;interxion-fra-13;Digital Realty;12000.0;9.6;8.7387345;50.1198783;Frankfurt Hesse 60314 DE;POINT (8.7387345 50.1198783);cloudscene;9.6;"reported_gross_max_power;annual_energy_scaled_to_20.6TWh(factor=2.427)";colocation;75724.86
1f4d02ad-9144-11e7-a556-02028ff44134;equinix-fr7;Equinix;0.0;;8.644020099999999;50.0967506;Frankfurt Hesse 60327 Germany;POINT (8.644020099999999 50.0967506);cloudscene;9.83;"pending_company_or_global_fallback;company_mean_estimate;annual_energy_scaled_to_20.6TWh(factor=2.427)";colocation;77499.66
1f706ced-9144-11e7-a556-02028ff44134;eunetworks-eunetworks-frankfurt;euNetworks;0.0;;8.647314699999999;50.1053963;Frankfurt Hesse 60327 Germany;POINT (8.647314699999999 50.1053963);cloudscene;4.91;"pending_company_or_global_fallback;global_median_fallback;annual_energy_scaled_to_20.6TWh(factor=2.427)";unknown;32796.66
5f52609b-8ff9-4301-9b71-446ab3714ad7;aixit-aix-f10;Aixit;;;8.7417642;50.141895;Frankfurt Hesse 60388 DE;POINT (8.7417642 50.141895);cloudscene;4.91;"pending_company_or_global_fallback;global_median_fallback;annual_energy_scaled_to_20.6TWh(factor=2.427)";unknown;32796.66
7e359ec0-3c68-11ec-86fc-0928bceba42c;vantage-data-centers-frankfurt;Vantage Data Centers;;;;;;;cloudscene;4.91;"pending_company_or_global_fallback;global_median_fallback;annual_energy_scaled_to_20.6TWh(factor=2.427)";unknown;32796.66
1f4c5b57-9144-11e7-a556-02028ff44134;interxion-fra-7;Digital Realty;2600.0;3.0;8.74056;50.12215;Frankfurt Hesse 60314 Germany;POINT (8.74056 50.12215);cloudscene;3.0;"reported_gross_max_power;annual_energy_scaled_to_20.6TWh(factor=2.427)";colocation;23664.02
554d7550-4da6-11ec-8ec1-c567137bc06a;wisag-frankfurt;WISAG;;;;;;;cloudscene;4.91;"pending_company_or_global_fallback;global_median_fallback;annual_energy_scaled_to_20.6TWh(factor=2.427)";unknown;32796.66
1f6fbeb3-9144-11e7-a556-02028ff44134;newcolo-frankfurt;NewColo;0.0;;8.633590000000002;50.10179000000001;Frankfurt Hesse 60326 Germany;POINT (8.633590000000002 50.10179000000001);cloudscene;4.91;"pending_company_or_global_fallback;global_median_fallback;annual_energy_scaled_to_20.6TWh(factor=2.427)";unknown;32796.66
1f9622ac-9144-11e7-a556-02028ff44134;verizon-frankfurt-2;Verizon;;;8.629337999999999;50.1009858;Frankfurt Hesse 60326 DE;POINT (8.629337999999999 50.1009858);cloudscene;2.4;"pending_company_or_global_fallback;company_mean_estimate;annual_energy_scaled_to_20.6TWh(factor=2.427)";enterprise;14562.47
1f789d69-9144-11e7-a556-02028ff44134;itenos-frankfurt;ITENOS;14000.0;;8.63226;50.09867;Frankfurt Hesse 60326 DE;POINT (8.63226 50.09867);cloudscene;25.2;"density_model:type=unknown;density_kW_per_m2=1.2;pue=1.5;annual_energy_scaled_to_20.6TWh(factor=2.427)";unknown;168196.57
0bad37e0-cdf0-11ed-b44d-d9b46d43a50a;vantage-data-centers-frankfurt-ii;Vantage Data Centers;;;;;;;cloudscene;4.91;"pending_company_or_global_fallback;global_median_fallback;annual_energy_scaled_to_20.6TWh(factor=2.427)";unknown;32796.66
1f962476-9144-11e7-a556-02028ff44134;ibm-bad-homburg;IBM;;;8.654854799999999;50.2130251;Bad Homburg Hesse 61352 DE;POINT (8.654854799999999 50.2130251);cloudscene;4.91;"pending_company_or_global_fallback;global_median_fallback;annual_energy_scaled_to_20.6TWh(factor=2.427)";enterprise;29815.15
d0d0eda0-3dc2-11ec-956a-0b6774ac5fb0;mainova-frankfurt-2;Mainova;;;;;;;cloudscene;4.91;"pending_company_or_global_fallback;global_median_fallback;annual_energy_scaled_to_20.6TWh(factor=2.427)";unknown;32796.66
ffb82bb0-20b8-11ec-b9ea-a9b0fbee05c8;mainzer-breitband-mainz;Mainzer Breitband;;;;;;;cloudscene;4.91;"pending_company_or_global_fallback;global_median_fallback;annual_energy_scaled_to_20.6TWh(factor=2.427)";unknown;32796.66
9a8f0400-035b-11ee-b1d9-bb730a0a3437;cyrusone-fra4-frankfurt;CyrusOne;;;;;;;cloudscene;16.23;"pending_company_or_global_fallback;company_mean_estimate;annual_energy_scaled_to_20.6TWh(factor=2.427)";unknown;108348.85
93a5499c-d88b-4e6d-8573-ec381dd19e2c;interxion-fra-14;Digital Realty;9600.0;9.6;8.73808;50.11953;Frankfurt  60314 DE;POINT (8.73808 50.11953);cloudscene;9.6;"reported_gross_max_power;annual_energy_scaled_to_20.6TWh(factor=2.427)";colocation;75724.86
1f9a7497-9144-11e7-a556-02028ff44134;itenos-frankfurt-2;ITENOS;14000.0;;8.631763099999999;50.0996967;Frankfurt Hesse 60326 DE;POINT (8.631763099999999 50.0996967);cloudscene;25.2;"density_model:type=unknown;density_kW_per_m2=1.2;pue=1.5;annual_energy_scaled_to_20.6TWh(factor=2.427)";unknown;168196.57
1f508c39-9144-11e7-a556-02028ff44134;ntt-global-data-centers-emea-frankfurt-1;NTT DATA Global Data Centers;60000.0;62.0;8.60097;50.12815;Frankfurt Hesse 60489 Germany;POINT (8.60097 50.12815);cloudscene;62.0;"reported_gross_max_power;annual_energy_scaled_to_20.6TWh(factor=2.427)";unknown;413816.95
4260ad00-a1cf-11ed-8554-61a143f0c881;equinix-fr11x;Equinix;;;;;;;cloudscene;9.83;"pending_company_or_global_fallback;company_mean_estimate;annual_energy_scaled_to_20.6TWh(factor=2.427)";colocation;77499.66
1f9ac107-9144-11e7-a556-02028ff44134;citi-frankfurt;Citi;;;8.640509999999999;50.19568;Frankfurt Hesse 60437 DE;POINT (8.640509999999999 50.19568);cloudscene;4.91;"pending_company_or_global_fallback;global_median_fallback;annual_energy_scaled_to_20.6TWh(factor=2.427)";unknown;32796.66
0bf6a99d-729a-4230-8112-8f233f658265;interxion-fra-15;Digital Realty;20600.0;19.2;8.733058;50.118776;Frankfurt Hesse 60314 DE;POINT (8.733058 50.118776);cloudscene;19.2;"reported_gross_max_power;annual_energy_scaled_to_20.6TWh(factor=2.427)";colocation;151449.72
e804b1cb-b31b-4974-8358-867f964184ec;keppel-data-centres-kelsterbach-data-centre;Keppel Data Centres;;;8.5250217;50.05189739999999;Offenbach am Main Kelsterbach Hesse 65451 DE;POINT (8.5250217 50.05189739999999);cloudscene;4.91;"pending_company_or_global_fallback;global_median_fallback;annual_energy_scaled_to_20.6TWh(factor=2.427)";unknown;32796.66
1f3f0bf7-9144-11e7-a556-02028ff44134;interxion-fra-1;Digital Realty;1100.0;0.1;8.73463;50.11967;Frankfurt Hesse 60314 Germany;POINT (8.73463 50.11967);cloudscene;0.1;"reported_gross_max_power;annual_energy_scaled_to_20.6TWh(factor=2.427)";colocation;788.8
57b5f868-b810-44dc-bcea-5b4887bf15e0;aixit-aix-f1-f5;Aixit;;;8.7398242;50.1224389;Frankfurt Hesse 60314 DE;POINT (8.7398242 50.1224389);cloudscene;4.91;"pending_company_or_global_fallback;global_median_fallback;annual_energy_scaled_to_20.6TWh(factor=2.427)";unknown;32796.66
1f9629c0-9144-11e7-a556-02028ff44134;ibm-oberursel;IBM;;;8.58908;50.19374999999999;Oberursel Frankfurt Hesse 61440 DE;POINT (8.58908 50.19374999999999);cloudscene;4.91;"pending_company_or_global_fallback;global_median_fallback;annual_energy_scaled_to_20.6TWh(factor=2.427)";enterprise;29815.15
1f9fbd93-9144-11e7-a556-02028ff44134;leaseweb-fra-10;LeaseWeb;67000.0;0.0;8.632468099999999;50.097774;Frankfurt Hesse 60326 DE;POINT (8.632468099999999 50.097774);cloudscene;120.6;"density_model:type=unknown;density_kW_per_m2=1.2;pue=1.5;annual_energy_scaled_to_20.6TWh(factor=2.427)";unknown;804940.72
920cd2af-c705-47e2-96d4-d0fe94fb951d;digital-realty-wilhelm-fay-strabe;Digital Realty;13600.0;9.0;8.5855654;50.1271736;Frankfurt Hesse 65936 DE;POINT (8.5855654 50.1271736);cloudscene;9.0;"reported_gross_max_power;annual_energy_scaled_to_20.6TWh(factor=2.427)";colocation;70992.06
1f9620fe-9144-11e7-a556-02028ff44134;verizon-frankfurt-3;Verizon;;;8.6646865;50.1113195;Frankfurt Hesse 60325 DE;POINT (8.6646865 50.1113195);cloudscene;2.4;"pending_company_or_global_fallback;company_mean_estimate;annual_energy_scaled_to_20.6TWh(factor=2.427)";enterprise;14562.47
1b53aa3b-de7d-435c-aeec-bfb18b1e7c88;aixit-aix-b2;Aixit;;;13.3398421;52.5365814;Berlin  13353 DE;POINT (13.3398421 52.5365814);cloudscene;4.91;"pending_company_or_global_fallback;global_median_fallback;annual_energy_scaled_to_20.6TWh(factor=2.427)";unknown;32796.66
1f91bb4c-9144-11e7-a556-02028ff44134;hofnetz-it-services-berlin-2;Hofnetz & IT Services;;;13.3657026;52.4717158;Berlin Berlin 10829 Germany;POINT (13.3657026 52.4717158);cloudscene;4.91;"pending_company_or_global_fallback;global_median_fallback;annual_energy_scaled_to_20.6TWh(factor=2.427)";unknown;32796.66
1f50bc39-9144-11e7-a556-02028ff44134;ntt-global-data-centers-emea-berlin-1;NTT DATA Global Data Centers;40000.0;12.0;13.23829;52.53851;Berlin Berlin 13599 Germany;POINT (13.23829 52.53851);cloudscene;12.0;"reported_gross_max_power;annual_energy_scaled_to_20.6TWh(factor=2.427)";unknown;80093.6
360e8004-b7ff-47e2-8a8b-4263e3cc23f9;vodafone-berlin;Vodafone;;;13.4461517;52.4682901;Berlin  12055 DE;POINT (13.4461517 52.4682901);cloudscene;4.91;"pending_company_or_global_fallback;global_median_fallback;annual_energy_scaled_to_20.6TWh(factor=2.427)";unknown;32796.66
b1a242b0-cdef-11ed-bd44-a361b68f8abe;vantage-data-centers-berlin-ii;Vantage Data Centers;;;;;;;cloudscene;4.91;"pending_company_or_global_fallback;global_median_fallback;annual_energy_scaled_to_20.6TWh(factor=2.427)";unknown;32796.66
1fa02a51-9144-11e7-a556-02028ff44134;plusserver-berlin;PlusServer;;;13.3178291;52.500982;Berlin  10707 DE;POINT (13.3178291 52.500982);cloudscene;4.91;"pending_company_or_global_fallback;global_median_fallback;annual_energy_scaled_to_20.6TWh(factor=2.427)";hosting_cloud;35778.18
86fc3d40-1627-11ee-8051-df51bde6b2f0;1-1-versatel-berlin;1 & 1 Versatel;;;;;;;cloudscene;4.91;"pending_company_or_global_fallback;global_median_fallback;annual_energy_scaled_to_20.6TWh(factor=2.427)";hosting_cloud;35778.18
1f6e00a6-9144-11e7-a556-02028ff44134;centurylink-berlin-2;Colt Technology Services;0.0;;13.37386;52.43269;Berlin Berlin 12277 Germany;POINT (13.37386 52.43269);cloudscene;4.91;"pending_company_or_global_fallback;company_mean_estimate;annual_energy_scaled_to_20.6TWh(factor=2.427)";colocation;38759.69
1f91bce6-9144-11e7-a556-02028ff44134;hofnetz-it-services-berlin-3;Hofnetz & IT Services;;;13.58752;52.54658;Berlin Berlin 10961 Germany;POINT (13.58752 52.54658);cloudscene;4.91;"pending_company_or_global_fallback;global_median_fallback;annual_energy_scaled_to_20.6TWh(factor=2.427)";unknown;32796.66
72979910-cdef-11ed-9064-ad196fdb4e09;vantage-data-centers-berlin-i;Vantage Data Centers;;;;;;;cloudscene;4.91;"pending_company_or_global_fallback;global_median_fallback;annual_energy_scaled_to_20.6TWh(factor=2.427)";unknown;32796.66
1f9ab3fd-9144-11e7-a556-02028ff44134;3u-telecom-berlin;3U Telecom;1000.0;;13.3890752;52.4557632;Berlin Berlin 12099 DE;POINT (13.3890752 52.4557632);cloudscene;1.8;"density_model:type=unknown;density_kW_per_m2=1.2;pue=1.5;annual_energy_scaled_to_20.6TWh(factor=2.427)";unknown;12014.04
1f8151f9-9144-11e7-a556-02028ff44134;dns:-net-ber2;DNS: Net;0.0;;13.36934;52.50201999999999;Berlin Berlin 10785 Germany;POINT (13.36934 52.50201999999999);cloudscene;4.91;"pending_company_or_global_fallback;global_median_fallback;annual_energy_scaled_to_20.6TWh(factor=2.427)";unknown;32796.66
c9ec57b1-2156-449a-9dae-22c4aabd3101;penta-infra-ber01;Penta Infra;;3.6;13.61844;52.51407;Berlin  12623 DE;POINT (13.61844 52.51407);cloudscene;3.6;"reported_gross_max_power;annual_energy_scaled_to_20.6TWh(factor=2.427)";unknown;24028.08
7af19460-d35e-11ed-ab85-894ea4320fea;scaleup-technologies-berlin-mahlsdorf;ScaleUp Technologies;;;;;;;cloudscene;4.91;"pending_company_or_global_fallback;global_median_fallback;annual_energy_scaled_to_20.6TWh(factor=2.427)";unknown;32796.66
1f94d943-9144-11e7-a556-02028ff44134;colt-technology-services-berlin-2;Colt Technology Services;;;13.3258164;52.5038265;Berlin Berlin 10623 DE;POINT (13.3258164 52.5038265);cloudscene;4.91;"pending_company_or_global_fallback;company_mean_estimate;annual_energy_scaled_to_20.6TWh(factor=2.427)";colocation;38759.69
1fa032cb-9144-11e7-a556-02028ff44134;deltaphon-berlin;Deltaphon;;;13.3890398;52.5183895;Berlin  10117 DE;POINT (13.3890398 52.5183895);cloudscene;4.91;"pending_company_or_global_fallback;global_median_fallback;annual_energy_scaled_to_20.6TWh(factor=2.427)";unknown;32796.66
f27c70b0-d1aa-11ed-a8e8-4fd7df174148;comarch-berlin;Comarch;;;;;;;cloudscene;1.08;"pending_company_or_global_fallback;company_mean_estimate;annual_energy_scaled_to_20.6TWh(factor=2.427)";unknown;7208.42
1f704e62-9144-11e7-a556-02028ff44134;eunetworks-eunetworks-berlin;euNetworks;0.0;;13.370104;52.465789;Berlin Berlin 12103 Germany;POINT (13.370104 52.465789);cloudscene;4.91;"pending_company_or_global_fallback;global_median_fallback;annual_energy_scaled_to_20.6TWh(factor=2.427)";unknown;32796.66
1f728648-9144-11e7-a556-02028ff44134;ipb-internet-provider-berlin-berlin-location-k;IPB Internet Provider Berlin;0.0;;13.37386;52.43269;Berlin Berlin 12277 Germany;POINT (13.37386 52.43269);cloudscene;2.34;"pending_company_or_global_fallback;company_mean_estimate;annual_energy_scaled_to_20.6TWh(factor=2.427)";unknown;15618.25
ae2cf8a0-9b13-40c1-97c2-85c1968689de;plusnet-berlin;Plusnet;;;13.3690155;52.4658434;Berlin  12103 DE;POINT (13.3690155 52.4658434);cloudscene;4.91;"pending_company_or_global_fallback;global_median_fallback;annual_energy_scaled_to_20.6TWh(factor=2.427)";unknown;32796.66
1f78052b-9144-11e7-a556-02028ff44134;mti-berlin;MTI;0.0;;13.38174;52.43051000000001;Berlin Berlin 10587 Germany;POINT (13.38174 52.43051000000001);cloudscene;4.91;"pending_company_or_global_fallback;global_median_fallback;annual_energy_scaled_to_20.6TWh(factor=2.427)";unknown;32796.66
1f911712-9144-11e7-a556-02028ff44134;d-hosting-berlin;D-Hosting;;;13.3427087;52.5241135;Berlin Berlin 10555 Germany;POINT (13.3427087 52.5241135);cloudscene;4.91;"pending_company_or_global_fallback;global_median_fallback;annual_energy_scaled_to_20.6TWh(factor=2.427)";unknown;32796.66
b5b324a1-36b5-4014-9402-ca0ef3945614;colt-technology-services-berlin;Colt Technology Services;;;13.3174376;52.5266351;Berlin  10553 DE;POINT (13.3174376 52.5266351);cloudscene;4.91;"pending_company_or_global_fallback;company_mean_estimate;annual_energy_scaled_to_20.6TWh(factor=2.427)";colocation;38759.69
1f6fd8e3-9144-11e7-a556-02028ff44134;speedbone-speedbone;Speedbone;0.0;;13.3696774;52.4658178;Berlin  12103 DE;POINT (13.3696774 52.4658178);cloudscene;4.91;"pending_company_or_global_fallback;global_median_fallback;annual_energy_scaled_to_20.6TWh(factor=2.427)";unknown;32796.66
c8348c00-fe7c-11ed-8b38-6759c6088e73;telefonica-global-solutions-teltow;Telefonica Global Solutions;;;;;;;cloudscene;4.91;"pending_company_or_global_fallback;global_median_fallback;annual_energy_scaled_to_20.6TWh(factor=2.427)";unknown;32796.66
1f4dde25-9144-11e7-a556-02028ff44134;colt-technology-services-berlin-1;Colt Technology Services;4800.0;4.75;13.31894;52.52798;Berlin Berlin 10533 Germany;POINT (13.31894 52.52798);cloudscene;4.75;"reported_gross_max_power;annual_energy_scaled_to_20.6TWh(factor=2.427)";colocation;37468.03
1f9aa8d6-9144-11e7-a556-02028ff44134;s-werk-berlin;S-Werk;;;13.3844346;52.5101638;Berlin Berlin 10117 DE;POINT (13.3844346 52.5101638);cloudscene;4.91;"pending_company_or_global_fallback;global_median_fallback;annual_energy_scaled_to_20.6TWh(factor=2.427)";unknown;32796.66
1f81505c-9144-11e7-a556-02028ff44134;dns:-net-ber1;DNS: Net;0.0;;13.4235216;52.4523473;Berlin Berlin  Germany;POINT (13.4235216 52.4523473);cloudscene;4.91;"pending_company_or_global_fallback;global_median_fallback;annual_energy_scaled_to_20.6TWh(factor=2.427)";unknown;32796.66
ea114e20-fd4d-11ef-944c-7f769eec1338;nlighten-ber1;nlighten;;;;;;;cloudscene;4.91;"pending_company_or_global_fallback;global_median_fallback;annual_energy_scaled_to_20.6TWh(factor=2.427)";colocation;38759.69
91557bc0-7f07-11ec-936f-cdd8bb7a93f7;penta-infra-ber02;Penta Infra;;6.0;13.619235258321996;52.51401921370509;;POINT (13.619235258321995 52.51401921370509);cloudscene;6.0;"reported_gross_max_power;annual_energy_scaled_to_20.6TWh(factor=2.427)";unknown;40046.8
5aaeb8ef-bfc9-4fac-aca4-af94b7179441;scaleup-technologies-spandau;ScaleUp Technologies;;;13.2380091;52.53853549999999;Berlin  13599 DE;POINT (13.2380091 52.53853549999999);cloudscene;4.91;"pending_company_or_global_fallback;global_median_fallback;annual_energy_scaled_to_20.6TWh(factor=2.427)";unknown;32796.66
1f70e215-9144-11e7-a556-02028ff44134;ipb-internet-provider-berlin-berlin-location-b;IPB Internet Provider Berlin;1300.0;0.0;13.36934;52.50202;Berlin Berlin 10785 Germany;POINT (13.36934 52.50202);cloudscene;2.34;"density_model:type=unknown;density_kW_per_m2=1.2;pue=1.5;annual_energy_scaled_to_20.6TWh(factor=2.427)";unknown;15618.25
7f589740-022d-11ed-a46c-dbdbd7a55fc7;pyur-rechenzentrum-berlin;PŸUR Business;;;;;;;cloudscene;4.91;"pending_company_or_global_fallback;global_median_fallback;annual_energy_scaled_to_20.6TWh(factor=2.427)";unknown;32796.66
65ca0aa0-7d65-11ec-b2af-19e8268b3f8e;maincubes-maincubes-ber01;maincubes;16600.0;8.2;;;;;cloudscene;8.2;"reported_gross_max_power;annual_energy_scaled_to_20.6TWh(factor=2.427)";unknown;54730.63
1f960828-9144-11e7-a556-02028ff44134;verizon-berlin;Verizon;;;13.3357445;52.4324476;Berlin Berlin 12247 DE;POINT (13.3357445 52.4324476);cloudscene;2.4;"pending_company_or_global_fallback;company_mean_estimate;annual_energy_scaled_to_20.6TWh(factor=2.427)";enterprise;14562.47
61756e8c-d23c-4e34-8ce1-d9db89bbe054;scaleup-technologies-britz;ScaleUp Technologies;;;13.42876;52.45274999999999;Berlin  12347 DE;POINT (13.42876 52.45274999999999);cloudscene;4.91;"pending_company_or_global_fallback;global_median_fallback;annual_energy_scaled_to_20.6TWh(factor=2.427)";unknown;32796.66
1f6dfb9d-9144-11e7-a556-02028ff44134;centurylink-berlin-1;Colt Technology Services;7744.0;7.2;13.42876;52.45274999999999;Berlin Berlin 12347 Germany;POINT (13.42876 52.45274999999999);cloudscene;7.2;"reported_gross_max_power;annual_energy_scaled_to_20.6TWh(factor=2.427)";colocation;56793.65
dd053440-05c8-11ee-a092-b1b5daab1822;init-berlin;]init[;;;;;;;cloudscene;4.91;"pending_company_or_global_fallback;global_median_fallback;annual_energy_scaled_to_20.6TWh(factor=2.427)";unknown;32796.66
34d19e80-3c73-11ec-9c32-bff37203e421;o2-berlin;O2;;;;;;;cloudscene;4.91;"pending_company_or_global_fallback;global_median_fallback;annual_energy_scaled_to_20.6TWh(factor=2.427)";unknown;32796.66
1f9609bd-9144-11e7-a556-02028ff44134;orange-business-services-berlin;Orange Business Services;;;13.31349;52.5442;Berlin Berlin 13627 DE;POINT (13.31349 52.5442);cloudscene;4.91;"pending_company_or_global_fallback;global_median_fallback;annual_energy_scaled_to_20.6TWh(factor=2.427)";enterprise;29815.15
4c9b1e9a-3486-4e74-ada7-5d349a88c885;aixit-aix-b1;Aixit;;;13.36934;52.50201999999999;Berlin  10785 DE;POINT (13.36934 52.50201999999999);cloudscene;4.91;"pending_company_or_global_fallback;global_median_fallback;annual_energy_scaled_to_20.6TWh(factor=2.427)";unknown;32796.66
1f91b99e-9144-11e7-a556-02028ff44134;hofnetz-it-services-berlin-1;Hofnetz & IT Services;;;13.3246272;52.5272714;Berlin Berlin 10553 Germany;POINT (13.3246272 52.5272714);cloudscene;4.91;"pending_company_or_global_fallback;global_median_fallback;annual_energy_scaled_to_20.6TWh(factor=2.427)";unknown;32796.66
f41ba880-9f2d-11ec-9984-7772d42c1085;atlas-edge-data-centres-berlin;Atlas Edge Data Centres;;4.75;;;;;cloudscene;4.75;"reported_gross_max_power;annual_energy_scaled_to_20.6TWh(factor=2.427)";unknown;31703.72
5fc68a5d-d607-43ba-9c92-1c63662654bd;ntt-global-data-centers-emea-berlin-2;NTT DATA Global Data Centers;54000.0;12.0;13.3702065;52.44034360000001;Berlin  12107 DE;POINT (13.3702065 52.44034360000001);cloudscene;12.0;"reported_gross_max_power;annual_energy_scaled_to_20.6TWh(factor=2.427)";unknown;80093.6
1fa02da8-9144-11e7-a556-02028ff44134;3u-telecom-hanover;3U Telecom;;;9.7319089;52.4041552;Hanover Lower Saxony 30165 DE;POINT (9.731908899999999 52.4041552);cloudscene;1.8;"pending_company_or_global_fallback;company_mean_estimate;annual_energy_scaled_to_20.6TWh(factor=2.427)";unknown;12014.04
1f962e72-9144-11e7-a556-02028ff44134;orange-business-services-hanover;Orange Business Services;;;9.7336208;52.4051441;Hanover Lower Saxony 30165 DE;POINT (9.733620799999999 52.4051441);cloudscene;4.91;"pending_company_or_global_fallback;global_median_fallback;annual_energy_scaled_to_20.6TWh(factor=2.427)";enterprise;29815.15
1f6e3329-9144-11e7-a556-02028ff44134;centurylink-hannover;Colt Technology Services;0.0;;9.72979;52.40634;Hannover Lower Saxony 30165 Germany;POINT (9.729790000000001 52.40634);cloudscene;4.91;"pending_company_or_global_fallback;company_mean_estimate;annual_energy_scaled_to_20.6TWh(factor=2.427)";colocation;38759.69
aa5f3b7d-32dc-4fda-8305-2546e9e5b07a;colt-technology-services-hanover;Colt Technology Services;;;9.7242;52.36931999999999;Hanover Lower Saxony 30169 DE;POINT (9.7242 52.36931999999999);cloudscene;4.91;"pending_company_or_global_fallback;company_mean_estimate;annual_energy_scaled_to_20.6TWh(factor=2.427)";colocation;38759.69
1f963195-9144-11e7-a556-02028ff44134;tuv-nord-group-hanover;TUV Nord Group;;;9.7772597;52.3347151;Hanover Lower Saxony 30519 DE;POINT (9.7772597 52.3347151);cloudscene;4.91;"pending_company_or_global_fallback;global_median_fallback;annual_energy_scaled_to_20.6TWh(factor=2.427)";unknown;32796.66
c83e58f0-fd4e-11ef-82df-2f7c0846230a;nlighten-haj1;nlighten;;;;;;;cloudscene;4.91;"pending_company_or_global_fallback;global_median_fallback;annual_energy_scaled_to_20.6TWh(factor=2.427)";colocation;38759.69
1f963003-9144-11e7-a556-02028ff44134;bt-hanover;BT;;;9.7319089;52.4041552;Hanover Lower Saxony 30165 DE;POINT (9.731908899999999 52.4041552);cloudscene;4.91;"pending_company_or_global_fallback;global_median_fallback;annual_energy_scaled_to_20.6TWh(factor=2.427)";enterprise;29815.15
1f707523-9144-11e7-a556-02028ff44134;eunetworks-eunetworks-hanover;euNetworks;0.0;;9.76907;52.39812;Hanover Lower Saxony 30177 Germany;POINT (9.76907 52.39812);cloudscene;4.91;"pending_company_or_global_fallback;global_median_fallback;annual_energy_scaled_to_20.6TWh(factor=2.427)";unknown;32796.66
1f9a762e-9144-11e7-a556-02028ff44134;hostway-hanover;Ntirety;;;9.7851213;52.3269783;Hanover Lower Saxony 30519 DE;POINT (9.7851213 52.3269783);cloudscene;4.91;"pending_company_or_global_fallback;global_median_fallback;annual_energy_scaled_to_20.6TWh(factor=2.427)";unknown;32796.66
0529e3e1-f552-4b95-ad45-1ef590ea12c0;dokom-rz-huckarde;DOKOM;;;7.419270200000028;51.5349823;Dortmund North Rhine-Westphalia 44369 DE;POINT (7.419270200000028 51.5349823);cloudscene;4.91;"pending_company_or_global_fallback;global_median_fallback;annual_energy_scaled_to_20.6TWh(factor=2.427)";unknown;32796.66
9c5c7640-b193-11ed-9392-6dc99afb9280;glasfaser-ruhr-bochum;Glasfaser Ruhr;;;;;;;cloudscene;4.91;"pending_company_or_global_fallback;global_median_fallback;annual_energy_scaled_to_20.6TWh(factor=2.427)";unknown;32796.66
1f705b6b-9144-11e7-a556-02028ff44134;eunetworks-eunetworks-dortmund;euNetworks;0.0;;7.487898599999999;51.520894;Dortmund North Rhine-Westphalia 44143 Germany;POINT (7.487898599999999 51.520894);cloudscene;4.91;"pending_company_or_global_fallback;global_median_fallback;annual_energy_scaled_to_20.6TWh(factor=2.427)";unknown;32796.66
600becf1-88e2-4918-9558-e03629158a1a;dokom-rz-stadtkrone-ost;DOKOM;;;7.528040000000001;51.50437;Dortmund North Rhine-Westphalia 44269 DE;POINT (7.528040000000001 51.50437);cloudscene;4.91;"pending_company_or_global_fallback;global_median_fallback;annual_energy_scaled_to_20.6TWh(factor=2.427)";unknown;32796.66
a48d43d0-097e-11ee-9556-6fcab80b8038;gelsen-net-ruhr;GELSEN-NET;;;;;;;cloudscene;4.91;"pending_company_or_global_fallback;global_median_fallback;annual_energy_scaled_to_20.6TWh(factor=2.427)";unknown;32796.66
1f9dc541-9144-11e7-a556-02028ff44134;knipp-medien-und-kommunikation-dortmund;Knipp Medien und Kommunikation;;;7.403320000000001;51.49087;Dortmund North Rhine-Westphalia 44227 DE;POINT (7.403320000000001 51.49087);cloudscene;4.91;"pending_company_or_global_fallback;global_median_fallback;annual_energy_scaled_to_20.6TWh(factor=2.427)";unknown;32796.66
1f7881d3-9144-11e7-a556-02028ff44134;mti-dortmund;MTI;0.0;;7.374219999999998;51.51934;Dortmund North Rhein-Westphalia 44379 Germany;POINT (7.374219999999998 51.51934);cloudscene;4.91;"pending_company_or_global_fallback;global_median_fallback;annual_energy_scaled_to_20.6TWh(factor=2.427)";unknown;32796.66
0800e0e0-c9a6-11eb-9390-919ac241f53b;helinet-hamm;Helinet;;;;;;;cloudscene;4.91;"pending_company_or_global_fallback;global_median_fallback;annual_energy_scaled_to_20.6TWh(factor=2.427)";unknown;32796.66
e8c7dac0-097e-11ee-ae7a-b115ed35a9f3;glasfaser-ruhr-ruhr;Glasfaser Ruhr;;;;;;;cloudscene;4.91;"pending_company_or_global_fallback;global_median_fallback;annual_energy_scaled_to_20.6TWh(factor=2.427)";unknown;32796.66
1f6e41bf-9144-11e7-a556-02028ff44134;centurylink-munich-1;Colt Technology Services;6114.0;5.4;11.662476;48.135617;Gewerbegebiet Am Moosfeld Munich Bavaria 81829 Germany;POINT (11.662476 48.135617);cloudscene;5.4;"reported_gross_max_power;annual_energy_scaled_to_20.6TWh(factor=2.427)";colocation;42595.23
1f9ffb36-9144-11e7-a556-02028ff44134;computer-bauer-munich;Computer Bauer;;;11.5730801;48.1454219;Munich Bavaria 80333 DE;POINT (11.5730801 48.1454219);cloudscene;4.91;"pending_company_or_global_fallback;global_median_fallback;annual_energy_scaled_to_20.6TWh(factor=2.427)";unknown;32796.66
1f963662-9144-11e7-a556-02028ff44134;vodafone-munich;Vodafone;;;11.5261728;48.1398586;Munich Bavaria 80687 DE;POINT (11.5261728 48.1398586);cloudscene;4.91;"pending_company_or_global_fallback;global_median_fallback;annual_energy_scaled_to_20.6TWh(factor=2.427)";unknown;32796.66
1f9fe07f-9144-11e7-a556-02028ff44134;trusted-network-unterschleiszheim;Trusted Network;;;11.5666945;48.2842855;Unterschleissheim Bavaria 85716 DE;POINT (11.5666945 48.2842855);cloudscene;4.91;"pending_company_or_global_fallback;global_median_fallback;annual_energy_scaled_to_20.6TWh(factor=2.427)";unknown;32796.66
bb1f52b0-d469-11ef-8ea7-dd09e046712a;portus-data-centers-munich;Portus Data Centers;;;;;;;cloudscene;4.91;"pending_company_or_global_fallback;global_median_fallback;annual_energy_scaled_to_20.6TWh(factor=2.427)";unknown;32796.66
191867c0-0407-11ee-911e-e3982078ea32;telia-munich;Telia;;;;;;;cloudscene;4.91;"pending_company_or_global_fallback;global_median_fallback;annual_energy_scaled_to_20.6TWh(factor=2.427)";unknown;32796.66
3879e022-5158-4d14-bbba-8454ff80e0d8;bmw-bmw;BMW;;;11.5684036;48.1942783;Munich Bavaria 80937 DE;POINT (11.5684036 48.1942783);cloudscene;4.91;"pending_company_or_global_fallback;global_median_fallback;annual_energy_scaled_to_20.6TWh(factor=2.427)";unknown;32796.66
1f7ea130-9144-11e7-a556-02028ff44134;contabo-munich;Contabo;0.0;;11.600183;48.1046343;Munich Bavaria 81549 Germany;POINT (11.600183 48.1046343);cloudscene;4.25;"pending_company_or_global_fallback;company_mean_estimate;annual_energy_scaled_to_20.6TWh(factor=2.427)";hosting_cloud;30963.46
1f77b844-9144-11e7-a556-02028ff44134;edgeconnex-edcmuc01;EdgeConneX;;2.4;11.5261728;48.1398586;Munich Bavaria 80687 Germany;POINT (11.5261728 48.1398586);cloudscene;2.4;"reported_gross_max_power;annual_energy_scaled_to_20.6TWh(factor=2.427)";unknown;16018.72
1fa02895-9144-11e7-a556-02028ff44134;plusserver-munich;PlusServer;;;11.6808466;48.2356338;Ismaning Bavaria 85737 DE;POINT (11.6808466 48.2356338);cloudscene;4.91;"pending_company_or_global_fallback;global_median_fallback;annual_energy_scaled_to_20.6TWh(factor=2.427)";hosting_cloud;35778.18
1f91e1d4-9144-11e7-a556-02028ff44134;ntt-global-data-centers-emea-munich-2;NTT DATA Global Data Centers;18000.0;14.0;11.5740836;48.2933171;Unterschleißheim Bavaria  Germany;POINT (11.5740836 48.2933171);cloudscene;14.0;"reported_gross_max_power;annual_energy_scaled_to_20.6TWh(factor=2.427)";unknown;93442.54
4bf1d9b0-25cf-11ee-ba1f-fbac9ca2b4b4;stadtwerke-penzberg-penzberg;Stadtwerke Penzberg;;;;;;;cloudscene;4.91;"pending_company_or_global_fallback;global_median_fallback;annual_energy_scaled_to_20.6TWh(factor=2.427)";unknown;32796.66
55f336da-3437-4697-b280-d965532a7f53;cable-wireless-communications-munich-2;Cable & Wireless Communications;;;11.59754;48.123971;Munich Bavaria 81669 DE;POINT (11.59754 48.123971);cloudscene;4.91;"pending_company_or_global_fallback;global_median_fallback;annual_energy_scaled_to_20.6TWh(factor=2.427)";unknown;32796.66
1f963993-9144-11e7-a556-02028ff44134;spacenet-munich-2;SpaceNet;;;11.6027819;48.1852388;Munich Bavaria 80807 DE;POINT (11.6027819 48.1852388);cloudscene;4.91;"pending_company_or_global_fallback;global_median_fallback;annual_energy_scaled_to_20.6TWh(factor=2.427)";unknown;32796.66
1f712838-9144-11e7-a556-02028ff44134;bt-munich;BT;0.0;;11.5279562;48.1398285;München Bavaria 80339 Germany;POINT (11.5279562 48.1398285);cloudscene;4.91;"pending_company_or_global_fallback;global_median_fallback;annual_energy_scaled_to_20.6TWh(factor=2.427)";enterprise;29815.15
1f9ba6fb-9144-11e7-a556-02028ff44134;internetx-munich;InterNetX;;;11.5926491;48.1955116;Munich Bavaria 80939 DE;POINT (11.5926491 48.1955116);cloudscene;4.91;"pending_company_or_global_fallback;global_median_fallback;annual_energy_scaled_to_20.6TWh(factor=2.427)";unknown;32796.66
1f820edf-9144-11e7-a556-02028ff44134;ign-munich;IGN;0.0;;11.5792464;48.1099189;Munich Bavaria 81539 Germany;POINT (11.5792464 48.1099189);cloudscene;4.91;"pending_company_or_global_fallback;global_median_fallback;annual_energy_scaled_to_20.6TWh(factor=2.427)";unknown;32796.66
1f9fe3dc-9144-11e7-a556-02028ff44134;emc-hostco-munich;EMC HostCo;;;11.5926401;48.195512;Munich Bavaria 80939 DE;POINT (11.5926401 48.195512);cloudscene;4.91;"pending_company_or_global_fallback;global_median_fallback;annual_energy_scaled_to_20.6TWh(factor=2.427)";unknown;32796.66
1f9fe22e-9144-11e7-a556-02028ff44134;noris-network-rz-munchen-ost-muc5;noris network;11000.0;;11.717469422161525;48.16948791999008;Aschheim Bavaria 85609 DE;POINT (11.717469422161523 48.16948791999008);cloudscene;26.73;"density_model:type=hosting_cloud;density_kW_per_m2=1.8;pue=1.35;annual_energy_scaled_to_20.6TWh(factor=2.427)";hosting_cloud;194627.46
1f6eff7a-9144-11e7-a556-02028ff44134;noris-network-rz-munchen-zentrum-muc6;noris network;0.0;;11.580445099109491;48.13755704506036;Munich Bavaria 80835 Germany;POINT (11.580445099109493 48.13755704506036);cloudscene;26.73;"pending_company_or_global_fallback;company_mean_estimate;annual_energy_scaled_to_20.6TWh(factor=2.427)";hosting_cloud;194627.46
1f9ff360-9144-11e7-a556-02028ff44134;leibniz-rechenzentrum-garching;Leibniz-Rechenzentrum;;;11.669497;48.261684;Garching Bavaria 85748 US;POINT (11.669497 48.261684);cloudscene;4.91;"pending_company_or_global_fallback;global_median_fallback;annual_energy_scaled_to_20.6TWh(factor=2.427)";unknown;32796.66
1f3f11c1-9144-11e7-a556-02028ff44134;equinix-mu1;Equinix;12788.0;10.5;11.5559611;48.142505;Munich Bavaria 80335 Germany;POINT (11.5559611 48.142505);cloudscene;10.5;"reported_gross_max_power;annual_energy_scaled_to_20.6TWh(factor=2.427)";colocation;82824.07
6ca24f41-5df9-420c-95f7-b302857617ad;mti-unterfohring;MTI;;;11.656861;48.190061;Unterföhring Bavaria 85774 DE;POINT (11.656861 48.190061);cloudscene;4.91;"pending_company_or_global_fallback;global_median_fallback;annual_energy_scaled_to_20.6TWh(factor=2.427)";unknown;32796.66
1f9a794f-9144-11e7-a556-02028ff44134;finanz-informatik-munich-2;Finanz Informatik;;;11.5957353;48.1733521;Munich Bavaria 80805 DE;POINT (11.5957353 48.1733521);cloudscene;4.91;"pending_company_or_global_fallback;global_median_fallback;annual_energy_scaled_to_20.6TWh(factor=2.427)";unknown;32796.66
3ecd4520-fdd8-11ed-a06c-7d8d5b6afbc8;qbeyond-munich;qbeyond;;;;;;;cloudscene;4.91;"pending_company_or_global_fallback;global_median_fallback;annual_energy_scaled_to_20.6TWh(factor=2.427)";unknown;32796.66
1f9ff196-9144-11e7-a556-02028ff44134;university-of-the-federal-armed-forces-munich-neubiberg;University of the Federal Armed Forces Munich;;;11.650679;48.07846019999999;Neubiberg Bavaria 85577 DE;POINT (11.650679 48.07846019999999);cloudscene;4.91;"pending_company_or_global_fallback;global_median_fallback;annual_energy_scaled_to_20.6TWh(factor=2.427)";unknown;32796.66
