type,name,lat,lon,area_m2
node,Berlin Ostgüterbahnhof (B7),52.5050061,13.4571308,0
way,ehemals Güterbahnhof Halensee,52.492783125,13.293950825,9881.41768986352
way,Güterbahnhof Berlin-Spandau Johannesstift,52.566530359999994,13.186302332,54426.462771617444
way,ehem. Containerbahnhof Frankfurter Allee,52.518510645454555,13.473596954545457,38857.15979717211
way,Güterbahnhof Tempelhof,52.470455297674405,13.38013506744186,64010.66710357482
way,Ehemaliger Güterbahnhof Berlin-Köpenick,52.45722622285715,13.593589517142854,139552.46323505344
way,Güterbahnhof Berlin-Treptow,52.48288548478262,13.45815536521739,32462.624501306753
way,Ehemaliger Güterbahnhof,52.392622589999995,13.513650845,39122.22339330243
